[{"elevation": 409.0,
  "lat": 47.224309,
  "lon": 8.9820506,
  "name": "Zen Zen Asia"},
 {"elevation": 448.0,
  "lat": 47.4955184,
  "lon": 8.7415564,
  "name": "Hallenbadrestaurant Geiselweid"},
 {"elevation": 438.0,
  "lat": 47.4830648,
  "lon": 8.705704,
  "name": "Schwimmbadrestaurant Töss"},
 {"elevation": 421.0,
  "lat": 47.2187634,
  "lon": 9.0052289,
  "name": "Landgasthaus Neuhof"},
 {"elevation": 425.0,
  "lat": 47.229599,
  "lon": 8.9660991,
  "name": "Gasthof Schützenhaus"},
 {"elevation": 483.0,
  "lat": 47.2263911,
  "lon": 8.9985532,
  "name": "Landgasthof Frohe Aussicht"},
 {"elevation": 416.0,
  "lat": 47.2192464,
  "lon": 9.0014181,
  "name": "Landgasthof Löwen"},
 {"elevation": 559.0,
  "lat": 47.6669077,
  "lon": 8.8581363,
  "name": "Restaurant Burg Hohenklingen"},
 {"elevation": 451.0, "lat": 47.2453596, "lon": 8.7260424, "name": "Metzg"},
 {"elevation": 512.0,
  "lat": 47.276489,
  "lon": 8.756607,
  "name": "Landgasthof Adler"},
 {"elevation": 792.0, "lat": 47.2899242, "lon": 8.6756256, "name": "Hochwacht"},
 {"elevation": 460.0,
  "lat": 47.3361381,
  "lon": 8.5322408,
  "name": "Il Grappolo"},
 {"elevation": 424.0, "lat": 47.3441094, "lon": 8.53266, "name": "Yan-Ruyi"},
 {"elevation": 470.0, "lat": 47.3266149, "lon": 8.5292088, "name": "Boom"},
 {"elevation": 507.0,
  "lat": 47.4487484,
  "lon": 8.6997079,
  "name": "Marché Kemptthal"},
 {"elevation": 736.0, "lat": 47.1344468, "lon": 8.614825, "name": "Hirschen"},
 {"elevation": 412.0,
  "lat": 47.3435586,
  "lon": 8.5368559,
  "name": "Ziegel oh Lac"},
 {"elevation": 412.0,
  "lat": 47.382807,
  "lon": 8.4929412,
  "name": "UBS Restaurant Flur"},
 {"elevation": 407.0,
  "lat": 47.383491,
  "lon": 8.4995953,
  "name": "Freihof Pizzeria Etna"},
 {"elevation": 411.0, "lat": 47.3814984, "lon": 8.5025715, "name": "Shilla"},
 {"elevation": 411.0,
  "lat": 47.3825781,
  "lon": 8.5012681,
  "name": "Letzigrund"},
 {"elevation": 409.0,
  "lat": 47.3842422,
  "lon": 8.4978272,
  "name": "Pizza Züri"},
 {"elevation": 409.0,
  "lat": 47.3841009,
  "lon": 8.4964028,
  "name": "Turbinenhalle"},
 {"elevation": 414.0, "lat": 47.3765101, "lon": 8.511279, "name": "Z am Park"},
 {"elevation": 452.0, "lat": 47.409767, "lon": 8.5374793, "name": "Gabbiano"},
 {"elevation": 419.0,
  "lat": 47.3703727,
  "lon": 8.5399233,
  "name": "Zeughauskeller"},
 {"elevation": 494.0,
  "lat": 47.3849796,
  "lon": 8.5482469,
  "name": "Zum Alten Löwen"},
 {"elevation": 435.0,
  "lat": 47.3420405,
  "lon": 8.5304612,
  "name": "Cafe Medina"},
 {"elevation": 418.0,
  "lat": 47.3733042,
  "lon": 8.5367495,
  "name": "Haus Hiltl"},
 {"elevation": 582.0,
  "lat": 47.2545703,
  "lon": 8.721418,
  "name": "sunshine hill american bar & restaurant"},
 {"elevation": 444.0, "lat": 47.3924197, "lon": 8.6466798, "name": "Frohsinn"},
 {"elevation": 727.0, "lat": 47.1164861, "lon": 8.6412594, "name": "Eierhals"},
 {"elevation": 656.0,
  "lat": 47.7054056,
  "lon": 8.5815234,
  "name": "Restaurant Beringer Randenturm"},
 {"elevation": 516.0,
  "lat": 47.2272141,
  "lon": 9.0013971,
  "name": "Restaurant Bar Sonnenhof"},
 {"elevation": 596.0,
  "lat": 47.2313202,
  "lon": 9.0234383,
  "name": "Gasthof zur Krone"},
 {"elevation": 528.0,
  "lat": 47.2467162,
  "lon": 8.7346505,
  "name": "Spiisbeiz Aberen"},
 {"elevation": 409.0, "lat": 47.239464, "lon": 8.7188798, "name": "Rössli"},
 {"elevation": 447.0, "lat": 47.5000502, "lon": 8.7312632, "name": "Tibits"},
 {"elevation": 446.0,
  "lat": 47.499747,
  "lon": 8.7264919,
  "name": "Casinotheater Restaurant Fredi"},
 {"elevation": 407.0, "lat": 47.6587355, "lon": 8.8591668, "name": "Rheinfels"},
 {"elevation": 409.0,
  "lat": 47.6574832,
  "lon": 8.8582848,
  "name": "Western Saloon Weinberg"},
 {"elevation": 407.0,
  "lat": 47.6594624,
  "lon": 8.859654,
  "name": "Hotel Restaurant Adler"},
 {"elevation": 407.0,
  "lat": 47.6592985,
  "lon": 8.8592705,
  "name": "Weinstube Rother Ochsen"},
 {"elevation": 408.0, "lat": 47.6607026, "lon": 8.859657, "name": "Gutenberg"},
 {"elevation": 450.0, "lat": 47.4979565, "lon": 8.727372, "name": "grepery"},
 {"elevation": 452.0, "lat": 47.5074513, "lon": 8.3797562, "name": "Löwen"},
 {"elevation": 466.0,
  "lat": 47.4992498,
  "lon": 8.4145968,
  "name": "Zur Schmitte"},
 {"elevation": 469.0,
  "lat": 47.3794422,
  "lon": 8.5470198,
  "name": "Ristorante Culmann"},
 {"elevation": 469.0,
  "lat": 47.3797201,
  "lon": 8.5469255,
  "name": "La Fontana"},
 {"elevation": 405.0,
  "lat": 47.6867108,
  "lon": 8.7495298,
  "name": "Da Pulcinella"},
 {"elevation": 408.0, "lat": 47.6889133, "lon": 8.7535688, "name": "Da Leone"},
 {"elevation": 470.0, "lat": 47.400103, "lon": 8.5436425, "name": "Il Postino"},
 {"elevation": 668.0,
  "lat": 47.3785107,
  "lon": 8.8052087,
  "name": "Alpenröösli Wallike"},
 {"elevation": 417.0, "lat": 47.1816382, "lon": 8.4589134, "name": "Rössli"},
 {"elevation": 404.0,
  "lat": 47.3910962,
  "lon": 8.4888858,
  "name": "Peking Garden"},
 {"elevation": 446.0,
  "lat": 47.4292515,
  "lon": 8.4893752,
  "name": "Waldhaus Katzensee"},
 {"elevation": 418.0,
  "lat": 47.179013,
  "lon": 8.4572525,
  "name": "Restaurant Ganesha"},
 {"elevation": 444.0, "lat": 47.4996979, "lon": 8.7241129, "name": "National"},
 {"elevation": 468.0, "lat": 47.3073899, "lon": 8.7586899, "name": "Frohsinn"},
 {"elevation": 421.0, "lat": 47.191636, "lon": 8.8865321, "name": "Bären"},
 {"elevation": 463.0,
  "lat": 47.0296138,
  "lon": 8.2937561,
  "name": "Giovannini's"},
 {"elevation": 452.0,
  "lat": 47.0153142,
  "lon": 8.3033241,
  "name": "Restaurant Eule"},
 {"elevation": 447.0, "lat": 47.4765082, "lon": 8.0842523, "name": "Frohsinn"},
 {"elevation": 432.0, "lat": 47.0501882, "lon": 8.3087802, "name": "Bahnhöfli"},
 {"elevation": 449.0,
  "lat": 47.6233413,
  "lon": 8.7767676,
  "name": "Schloss Schwandegg"},
 {"elevation": 411.0,
  "lat": 47.183808,
  "lon": 8.9939498,
  "name": "Landgasthof Sternen"},
 {"elevation": 419.0, "lat": 47.6341896, "lon": 8.5789071, "name": "Akropolis"},
 {"elevation": 421.0,
  "lat": 47.6060522,
  "lon": 8.5771059,
  "name": "Gasthof zum Kranz"},
 {"elevation": 455.0, "lat": 47.3734628, "lon": 8.553472, "name": "Oberhof"},
 {"elevation": 418.0, "lat": 47.3693682, "lon": 8.5239637, "name": "Dar"},
 {"elevation": 444.0,
  "lat": 47.3697879,
  "lon": 8.5563885,
  "name": "Rosengarten"},
 {"elevation": 412.0,
  "lat": 47.2678861,
  "lon": 8.6450038,
  "name": "Thai Orchid"},
 {"elevation": 509.0, "lat": 47.3761503, "lon": 8.559374, "name": "Grain"},
 {"elevation": 490.0,
  "lat": 47.3995321,
  "lon": 8.5727756,
  "name": "Wirtschaft Ziegelhütte"},
 {"elevation": 418.0,
  "lat": 47.3773106,
  "lon": 8.5130089,
  "name": "Gebeta äthiopische und eritreische Spezialitäten"},
 {"elevation": 419.0,
  "lat": 47.3761581,
  "lon": 8.5147672,
  "name": "Taverne da Angelo"},
 {"elevation": 418.0,
  "lat": 47.3783291,
  "lon": 8.5096105,
  "name": "Lok Lak Asian Eatery"},
 {"elevation": 422.0, "lat": 47.5055769, "lon": 8.5913355, "name": "Lokal"},
 {"elevation": 505.0,
  "lat": 47.3791543,
  "lon": 8.6166817,
  "name": "Restaurant Waldmannsburg"},
 {"elevation": 437.0,
  "lat": 47.3968938,
  "lon": 8.6138054,
  "name": "Pizzeria Il Faro"},
 {"elevation": 443.0, "lat": 47.4145066, "lon": 8.5330149, "name": "Tasteria"},
 {"elevation": 439.0, "lat": 47.4143917, "lon": 8.539455, "name": "Kai Sushi"},
 {"elevation": 423.0, "lat": 47.3639501, "lon": 8.5201156, "name": "Imone"},
 {"elevation": 402.0, "lat": 47.3884346, "lon": 8.5208041, "name": "Soho"},
 {"elevation": 425.0,
  "lat": 47.3697414,
  "lon": 8.5100698,
  "name": "Shangrila Tibet"},
 {"elevation": 423.0, "lat": 47.3641859, "lon": 8.5204226, "name": "AnaMiRa"},
 {"elevation": 424.0, "lat": 47.3651417, "lon": 8.5200023, "name": "Hopfenau"},
 {"elevation": 421.0,
  "lat": 47.3673432,
  "lon": 8.5200355,
  "name": "Jane Fine Food"},
 {"elevation": 440.0, "lat": 47.3592215, "lon": 8.5162289, "name": "Swaad"},
 {"elevation": 412.0,
  "lat": 47.3613874,
  "lon": 8.549412,
  "name": "Hotel Seegarten"},
 {"elevation": 416.0, "lat": 47.3618394, "lon": 8.5506873, "name": "Ginger"},
 {"elevation": 416.0, "lat": 47.3618934, "lon": 8.551033, "name": "Tiffins"},
 {"elevation": 411.0, "lat": 47.3630112, "lon": 8.5495281, "name": "Suan Long"},
 {"elevation": 510.0,
  "lat": 47.2071595,
  "lon": 8.5059055,
  "name": "Hirssattel"},
 {"elevation": 414.0,
  "lat": 47.3675511,
  "lon": 8.5457188,
  "name": "Kronenhalle"},
 {"elevation": 414.0,
  "lat": 47.3678872,
  "lon": 8.5443882,
  "name": "Terrasse Restaurant"},
 {"elevation": 414.0,
  "lat": 47.3677942,
  "lon": 8.5451446,
  "name": "Café Bar ODEON"},
 {"elevation": 417.0, "lat": 47.3673843, "lon": 8.5458541, "name": "Rosaly's"},
 {"elevation": 417.0,
  "lat": 47.3670484,
  "lon": 8.5462454,
  "name": "Yume Ramen"},
 {"elevation": 417.0, "lat": 47.3671867, "lon": 8.546484, "name": "Yooji's"},
 {"elevation": 413.0, "lat": 47.3659313, "lon": 8.5490837, "name": "Commercio"},
 {"elevation": 418.0, "lat": 47.3641688, "lon": 8.5472235, "name": "Quaglinos"},
 {"elevation": 418.0,
  "lat": 47.363996,
  "lon": 8.5473846,
  "name": "Hatecke du Théâtre"},
 {"elevation": 416.0,
  "lat": 47.3620903,
  "lon": 8.5508626,
  "name": "Co Chin Chin"},
 {"elevation": 412.0, "lat": 47.3606695, "lon": 8.5499916, "name": "Amalfi"},
 {"elevation": 418.0,
  "lat": 47.3636438,
  "lon": 8.546378,
  "name": "Restaurant Pumpstation"},
 {"elevation": 428.0, "lat": 47.364789, "lon": 8.5548938, "name": "Bohemia"},
 {"elevation": 428.0, "lat": 47.3651703, "lon": 8.554528, "name": "Nooba"},
 {"elevation": 419.0, "lat": 47.3582879, "lon": 8.5541672, "name": "Yooji's"},
 {"elevation": 413.0, "lat": 47.3650577, "lon": 8.5482803, "name": "Bimi"},
 {"elevation": 423.0,
  "lat": 47.3575819,
  "lon": 8.5575836,
  "name": "Gesundheitszentrum für das Alter Wildbach"},
 {"elevation": 430.0, "lat": 47.3627304, "lon": 8.5545618, "name": "Ländli"},
 {"elevation": 410.0,
  "lat": 47.3663196,
  "lon": 8.5467367,
  "name": "Santa Lucia"},
 {"elevation": 410.0, "lat": 47.3649869, "lon": 8.5460635, "name": "Lulu"},
 {"elevation": 524.0, "lat": 47.4179171, "lon": 8.4826063, "name": "Grünwald"},
 {"elevation": 444.0,
  "lat": 47.4300419,
  "lon": 8.4654856,
  "name": "Gasthof Hirschen"},
 {"elevation": 419.0,
  "lat": 47.3638611,
  "lon": 8.5311821,
  "name": "House of Ren"},
 {"elevation": 465.0, "lat": 47.3491401, "lon": 8.7187108, "name": "Sewasdee"},
 {"elevation": 465.0,
  "lat": 47.3500092,
  "lon": 8.7181336,
  "name": "Pöstli Da Mamma Lisetta"},
 {"elevation": 449.0,
  "lat": 47.3895907,
  "lon": 8.627177,
  "name": "Restaurant Dübi Ice"},
 {"elevation": 488.0, "lat": 47.3596225, "lon": 8.7293139, "name": "Buchholz"},
 {"elevation": 462.0, "lat": 47.3467541, "lon": 8.7168181, "name": "Frieden"},
 {"elevation": 474.0, "lat": 47.3467108, "lon": 8.727576, "name": "Turandot"},
 {"elevation": 462.0, "lat": 47.3467206, "lon": 8.7158799, "name": "Kastanie"},
 {"elevation": 414.0,
  "lat": 47.3682061,
  "lon": 8.5456652,
  "name": "Weisse Rose"},
 {"elevation": 580.0,
  "lat": 47.6371418,
  "lon": 8.8991852,
  "name": "Restaurant Klingenzellerhof"},
 {"elevation": 541.0,
  "lat": 47.3016408,
  "lon": 7.9778827,
  "name": "Gasthof Linde"},
 {"elevation": 427.0, "lat": 47.3690028, "lon": 8.5500485, "name": "Minine"},
 {"elevation": 417.0, "lat": 47.3597536, "lon": 8.5524861, "name": "NA081"},
 {"elevation": 521.0,
  "lat": 47.3673483,
  "lon": 8.5675093,
  "name": "Sonnenberg"},
 {"elevation": 460.0, "lat": 47.3654698, "lon": 8.5636573, "name": "Aroma"},
 {"elevation": 443.0,
  "lat": 47.3632165,
  "lon": 8.5599915,
  "name": "Restaurant Zauberberg"},
 {"elevation": 438.0, "lat": 47.3623472, "lon": 8.5587815, "name": "Lin Lin"},
 {"elevation": 438.0,
  "lat": 47.3615601,
  "lon": 8.5603652,
  "name": "ButchersTable"},
 {"elevation": 434.0,
  "lat": 47.3596206,
  "lon": 8.5585046,
  "name": "Neumünster"},
 {"elevation": 401.0,
  "lat": 47.3519701,
  "lon": 8.5580482,
  "name": "Strand-Restaurant Tiefenbrunnen"},
 {"elevation": 433.0, "lat": 47.3703441, "lon": 8.552204, "name": "Wolfbach"},
 {"elevation": 433.0,
  "lat": 47.3697919,
  "lon": 8.5529812,
  "name": "Afghan Anar"},
 {"elevation": 414.0, "lat": 47.3681833, "lon": 8.5451811, "name": "Blockhus"},
 {"elevation": 425.0,
  "lat": 47.3688249,
  "lon": 8.5455086,
  "name": "Weisser Wind"},
 {"elevation": 417.0, "lat": 47.555371, "lon": 8.8987088, "name": "Promenade"},
 {"elevation": 425.0,
  "lat": 47.3687595,
  "lon": 8.5445743,
  "name": "Papa Joe's Zürich"},
 {"elevation": 425.0, "lat": 47.3690472, "lon": 8.5439586, "name": "Molino"},
 {"elevation": 407.0,
  "lat": 47.3700612,
  "lon": 8.5416945,
  "name": "Zunfthaus zur Meisen"},
 {"elevation": 446.0,
  "lat": 47.4989606,
  "lon": 8.7313826,
  "name": "zum Schäfli"},
 {"elevation": 429.0,
  "lat": 47.3707349,
  "lon": 8.5479863,
  "name": "Bei Moudi am Kunsthaus"},
 {"elevation": 419.0, "lat": 47.3701032, "lon": 8.5401242, "name": "Orsini"},
 {"elevation": 419.0,
  "lat": 47.3700603,
  "lon": 8.5398264,
  "name": "Santa Lucia"},
 {"elevation": 419.0, "lat": 47.3702715, "lon": 8.5401314, "name": "Heugümper"},
 {"elevation": 419.0,
  "lat": 47.3702401,
  "lon": 8.5403116,
  "name": "Zunfthaus zur Waag"},
 {"elevation": 419.0,
  "lat": 47.3700175,
  "lon": 8.5403598,
  "name": "Münsterhöfli"},
 {"elevation": 419.0, "lat": 47.3693, "lon": 8.5405687, "name": "Puro"},
 {"elevation": 419.0, "lat": 47.3689961, "lon": 8.5402339, "name": "Milchbar"},
 {"elevation": 417.0,
  "lat": 47.3670788,
  "lon": 8.5477023,
  "name": "Outback Lodge"},
 {"elevation": 417.0,
  "lat": 47.3671507,
  "lon": 8.547428,
  "name": "Negishi sushi bar"},
 {"elevation": 413.0,
  "lat": 47.3661112,
  "lon": 8.5486513,
  "name": "Weisses Kreuz"},
 {"elevation": 410.0,
  "lat": 47.3654324,
  "lon": 8.5478765,
  "name": "Migros Restaurant"},
 {"elevation": 608.0, "lat": 47.3841997, "lon": 8.5741522, "name": "Outpost"},
 {"elevation": 599.0,
  "lat": 47.3843967,
  "lon": 8.5751844,
  "name": "Zoo Caffé & Ristorante"},
 {"elevation": 414.0,
  "lat": 47.3490341,
  "lon": 8.5631953,
  "name": "La Trattoria Blumenau"},
 {"elevation": 463.0, "lat": 47.3578267, "lon": 8.5724184, "name": "Burgwies"},
 {"elevation": 457.0,
  "lat": 47.3608497,
  "lon": 8.5665611,
  "name": "Antiquaria da marco"},
 {"elevation": 439.0,
  "lat": 47.3602234,
  "lon": 8.5655522,
  "name": "Marcellino Pane e Vino"},
 {"elevation": 430.0,
  "lat": 47.3643316,
  "lon": 8.5545739,
  "name": "Royal Panda"},
 {"elevation": 1156.0,
  "lat": 47.232288,
  "lon": 9.0698043,
  "name": "Alpwirtschaft Wielesch"},
 {"elevation": 1221.0,
  "lat": 47.2383263,
  "lon": 9.0956196,
  "name": "Alpwirtschaft Oberbächen"},
 {"elevation": 408.0,
  "lat": 47.373118,
  "lon": 8.5417898,
  "name": "Restaurant Schipfe 16"},
 {"elevation": 420.0,
  "lat": 47.3743748,
  "lon": 8.5394674,
  "name": "Brasserie Lipp"},
 {"elevation": 414.0, "lat": 47.3751744, "lon": 8.5397124, "name": "Lotti"},
 {"elevation": 418.0, "lat": 47.3643407, "lon": 8.5470929, "name": "Silk"},
 {"elevation": 951.0,
  "lat": 47.1733187,
  "lon": 8.7723279,
  "name": "St. Meinrad"},
 {"elevation": 408.0,
  "lat": 47.2074043,
  "lon": 8.955557,
  "name": "Gasthaus Kapellhof"},
 {"elevation": 674.0, "lat": 47.1667167, "lon": 8.5532237, "name": "Löwen"},
 {"elevation": 414.0, "lat": 47.3770849, "lon": 8.1429856, "name": "Eintr8"},
 {"elevation": 413.0,
  "lat": 47.3574904,
  "lon": 8.0467569,
  "name": "Restaurant Schmiedstube"},
 {"elevation": 413.0, "lat": 47.356433, "lon": 8.0469523, "name": "Engel"},
 {"elevation": 415.0, "lat": 47.3676805, "lon": 8.5372866, "name": "Trinity"},
 {"elevation": 581.0, "lat": 47.4357098, "lon": 8.7175225, "name": "Traube"},
 {"elevation": 413.0,
  "lat": 47.3650488,
  "lon": 8.5486637,
  "name": "Cheti's Curry"},
 {"elevation": 449.0,
  "lat": 47.584358,
  "lon": 8.8916595,
  "name": "Besenbeiz Geisslerstübli"},
 {"elevation": 443.0,
  "lat": 47.1753345,
  "lon": 8.8971984,
  "name": "Restaurant Molkerei"},
 {"elevation": 446.0, "lat": 47.1744234, "lon": 8.8966269, "name": "Krone"},
 {"elevation": 448.0, "lat": 47.1746421, "lon": 8.8986353, "name": "Gustav"},
 {"elevation": 509.0, "lat": 47.5051975, "lon": 8.801467, "name": "Frohsinn"},
 {"elevation": 452.0, "lat": 47.4924964, "lon": 8.761252, "name": "Kafi Ass"},
 {"elevation": 1079.0,
  "lat": 47.1253166,
  "lon": 9.0083791,
  "name": "Bergrestaurant Hirzli"},
 {"elevation": 566.0,
  "lat": 47.2370811,
  "lon": 9.0018444,
  "name": "Restaurant Rössli"},
 {"elevation": 414.0,
  "lat": 47.3761856,
  "lon": 8.5413414,
  "name": "Dupont Brasserie & Bar"},
 {"elevation": 414.0,
  "lat": 47.3761821,
  "lon": 8.5402129,
  "name": "Sala of Tokyo"},
 {"elevation": 494.0,
  "lat": 47.2617452,
  "lon": 8.8308407,
  "name": "TS Green Inn"},
 {"elevation": 412.0,
  "lat": 47.3722057,
  "lon": 8.5437442,
  "name": "Santa Lucia"},
 {"elevation": 444.0, "lat": 47.6966284, "lon": 8.7494931, "name": "Delphi"},
 {"elevation": 450.0, "lat": 47.498689, "lon": 8.727701, "name": "Pulcinella"},
 {"elevation": 480.0,
  "lat": 47.7081589,
  "lon": 8.5738871,
  "name": "Nevada Range"},
 {"elevation": 612.0,
  "lat": 47.7339609,
  "lon": 8.5822868,
  "name": "Restaurant Frohsinn"},
 {"elevation": 418.0,
  "lat": 47.3766974,
  "lon": 8.5388369,
  "name": "Walliser Kanne"},
 {"elevation": 418.0,
  "lat": 47.3760268,
  "lon": 8.5384828,
  "name": "SAM'S Pizza Land"},
 {"elevation": 411.0,
  "lat": 47.3771315,
  "lon": 8.5375254,
  "name": "Schützengasse"},
 {"elevation": 418.0, "lat": 47.3743934, "lon": 8.535549, "name": "Astra"},
 {"elevation": 452.0, "lat": 47.4097743, "lon": 8.537357, "name": "Pizza Bros"},
 {"elevation": 419.0,
  "lat": 47.3729055,
  "lon": 8.5366859,
  "name": "Glogge-Egge"},
 {"elevation": 419.0,
  "lat": 47.3722044,
  "lon": 8.5371777,
  "name": "James Joyce"},
 {"elevation": 420.0, "lat": 47.3732035, "lon": 8.5379816, "name": "Aurora"},
 {"elevation": 519.0,
  "lat": 47.7417529,
  "lon": 8.4389552,
  "name": "Landgasthof-Hotel Rebstock"},
 {"elevation": 425.0, "lat": 47.1910796, "lon": 8.8959376, "name": "Krone"},
 {"elevation": 776.0, "lat": 47.2504802, "lon": 9.0309589, "name": "Bildhaus"},
 {"elevation": 421.0,
  "lat": 47.3735998,
  "lon": 8.5447955,
  "name": "Café Zähringer"},
 {"elevation": 511.0, "lat": 47.479283, "lon": 8.1602894, "name": "N/A"},
 {"elevation": 412.0, "lat": 47.360198, "lon": 8.5333948, "name": "Il Tartufo"},
 {"elevation": 412.0, "lat": 47.3600645, "lon": 8.5340786, "name": "L'Altro"},
 {"elevation": 425.0,
  "lat": 47.3597047,
  "lon": 8.5318434,
  "name": "Sternen Da Guido"},
 {"elevation": 416.0, "lat": 47.3635082, "lon": 8.5323081, "name": "San Marco"},
 {"elevation": 416.0, "lat": 47.3637422, "lon": 8.5325109, "name": "Ruen Tai"},
 {"elevation": 413.0, "lat": 47.3635147, "lon": 8.5339001, "name": "La Mimosa"},
 {"elevation": 424.0,
  "lat": 47.3577263,
  "lon": 8.533274,
  "name": "Restaurant Belvoirpark"},
 {"elevation": 1091.0,
  "lat": 47.1776187,
  "lon": 8.767722,
  "name": "Bergrestaurant Etzel Kulm"},
 {"elevation": 509.0,
  "lat": 47.0193362,
  "lon": 8.6553441,
  "name": "Imbiss Pudel"},
 {"elevation": 444.0,
  "lat": 47.6953649,
  "lon": 8.5756324,
  "name": "Wirtschaft zum Bahnhof"},
 {"elevation": 1427.0,
  "lat": 47.027094,
  "lon": 8.7024197,
  "name": "Bergrestaurant Skihaus Holzegg"},
 {"elevation": 1383.0,
  "lat": 47.0288509,
  "lon": 8.6986315,
  "name": "Berggasthaus Holzegg"},
 {"elevation": 438.0,
  "lat": 47.4537385,
  "lon": 8.5796895,
  "name": "LyLai Chinese Table"},
 {"elevation": 436.0, "lat": 47.5278432, "lon": 8.4671117, "name": "Pöstli"},
 {"elevation": 439.0, "lat": 47.5268593, "lon": 8.4686758, "name": "Brauerei"},
 {"elevation": 567.0,
  "lat": 47.461852,
  "lon": 8.9574825,
  "name": "Royal Garden"},
 {"elevation": 581.0, "lat": 47.4665577, "lon": 9.0470734, "name": "Laghetto"},
 {"elevation": 778.0,
  "lat": 47.114216,
  "lon": 8.41538,
  "name": "Gasthaus Michaelskreuz"},
 {"elevation": 415.0, "lat": 47.365841, "lon": 8.5325611, "name": "Old Inn"},
 {"elevation": 416.0,
  "lat": 47.3643354,
  "lon": 8.5321297,
  "name": "Fujiya of Japan"},
 {"elevation": 455.0,
  "lat": 47.5460241,
  "lon": 8.4581715,
  "name": "Freihof Chistenpass"},
 {"elevation": 412.0,
  "lat": 47.3723135,
  "lon": 8.5437395,
  "name": "greperey - crêpes & drinks"},
 {"elevation": 421.0,
  "lat": 47.5115944,
  "lon": 8.4775418,
  "name": "Pizzeria Riedpark"},
 {"elevation": 474.0, "lat": 47.2876462, "lon": 8.5430311, "name": "Nishat"},
 {"elevation": 543.0,
  "lat": 47.2847918,
  "lon": 8.5321411,
  "name": "Pizza-Dome Haslen"},
 {"elevation": 465.0,
  "lat": 47.6463348,
  "lon": 8.8452273,
  "name": "Chämihütte"},
 {"elevation": 536.0, "lat": 47.3742506, "lon": 8.7323962, "name": "Blume"},
 {"elevation": 407.0, "lat": 47.6977076, "lon": 8.6336848, "name": "Falken"},
 {"elevation": 404.0, "lat": 47.3878614, "lon": 8.5244404, "name": "Don Weber"},
 {"elevation": 443.0, "lat": 47.2140672, "lon": 9.0260447, "name": "Frohsinn"},
 {"elevation": 443.0,
  "lat": 47.2136652,
  "lon": 9.0255487,
  "name": "Restaurant Hotel Hirschen"},
 {"elevation": 408.0,
  "lat": 47.393791,
  "lon": 8.5132196,
  "name": "Quartier 5 Restaurant & Bar"},
 {"elevation": 421.0,
  "lat": 47.5109256,
  "lon": 8.6944084,
  "name": "Taverne zum Hirschen"},
 {"elevation": 417.0, "lat": 47.372671, "lon": 8.528216, "name": "OKO"},
 {"elevation": 1012.0,
  "lat": 47.1711197,
  "lon": 8.6931356,
  "name": "Gasthaus Rossberg"},
 {"elevation": 532.0, "lat": 47.3853742, "lon": 8.7507357, "name": "Binario 3"},
 {"elevation": 544.0,
  "lat": 47.3657863,
  "lon": 8.7811472,
  "name": "Gasthof zum Hecht"},
 {"elevation": 544.0, "lat": 47.365804, "lon": 8.7816724, "name": "Brauerei"},
 {"elevation": 808.0, "lat": 47.3434187, "lon": 8.8339403, "name": "Rosinli"},
 {"elevation": 869.0,
  "lat": 46.9946678,
  "lon": 8.3929894,
  "name": "Gasthaus Trogen"},
 {"elevation": 406.0, "lat": 47.3851137, "lon": 8.5362371, "name": "Primitivo"},
 {"elevation": 550.0,
  "lat": 47.2926109,
  "lon": 8.5289385,
  "name": "Restaurant Langenberg (Jäger- und Ofenstübli)"},
 {"elevation": 482.0, "lat": 47.3972052, "lon": 8.5408759, "name": "Hang's"},
 {"elevation": 456.0,
  "lat": 47.3892648,
  "lon": 8.6738928,
  "name": "Am Chappeli"},
 {"elevation": 551.0,
  "lat": 47.3435794,
  "lon": 8.773069,
  "name": "Jucker Farm Hofrestaurant"},
 {"elevation": 467.0, "lat": 47.2554562, "lon": 8.8578529, "name": "Sternen"},
 {"elevation": 401.0,
  "lat": 47.3878633,
  "lon": 8.5186448,
  "name": "Les Halles"},
 {"elevation": 405.0,
  "lat": 47.3900555,
  "lon": 8.5179098,
  "name": "Toscano im Puls 5"},
 {"elevation": 464.0, "lat": 47.4438776, "lon": 8.6275437, "name": "Meraki"},
 {"elevation": 458.0, "lat": 47.4448658, "lon": 8.6244188, "name": "Barone"},
 {"elevation": 460.0, "lat": 47.4436205, "lon": 8.6287003, "name": "Löwen"},
 {"elevation": 464.0,
  "lat": 47.4437737,
  "lon": 8.6272686,
  "name": "Steakhouse 8303"},
 {"elevation": 599.0,
  "lat": 47.3936289,
  "lon": 8.7750377,
  "name": "Restaurant & Bar Metzg Russikon"},
 {"elevation": 431.0,
  "lat": 47.507203,
  "lon": 8.7112534,
  "name": "Café Auszeit"},
 {"elevation": 452.0,
  "lat": 47.5116598,
  "lon": 8.7216514,
  "name": "Pizzeria Rosenberg"},
 {"elevation": 664.0,
  "lat": 47.3612818,
  "lon": 8.8238295,
  "name": "Wilden Mann"},
 {"elevation": 544.0, "lat": 47.3597248, "lon": 8.7597142, "name": "Castanea"},
 {"elevation": 564.0,
  "lat": 47.2316268,
  "lon": 8.6347819,
  "name": "Wirtschaft zum Neubüel"},
 {"elevation": 434.0,
  "lat": 47.2314321,
  "lon": 8.6680315,
  "name": "Pizzeria Romantica"},
 {"elevation": 418.0, "lat": 47.2292601, "lon": 8.6707434, "name": "Neuhuesli"},
 {"elevation": 418.0, "lat": 47.2295579, "lon": 8.6702562, "name": "Cafe City"},
 {"elevation": 428.0,
  "lat": 47.2288259,
  "lon": 8.6701255,
  "name": "Gasthaus zum Löwen"},
 {"elevation": 819.0,
  "lat": 47.3220659,
  "lon": 8.8521825,
  "name": "Bäsebeiz Chopfholz"},
 {"elevation": 443.0, "lat": 47.4143333, "lon": 8.5403532, "name": "Fusio"},
 {"elevation": 514.0, "lat": 47.3999623, "lon": 8.5154056, "name": "Die Waid"},
 {"elevation": 406.0, "lat": 47.2284429, "lon": 8.6752832, "name": "Du Lac"},
 {"elevation": 406.0, "lat": 47.2274013, "lon": 8.675758, "name": "Gambrinus"},
 {"elevation": 417.0,
  "lat": 47.7255058,
  "lon": 8.8467753,
  "name": "Gasthaus Rössle"},
 {"elevation": 637.0,
  "lat": 47.0453653,
  "lon": 8.2798436,
  "name": "Schwyzerhüsli"},
 {"elevation": 669.0,
  "lat": 47.3851245,
  "lon": 8.7915057,
  "name": "zur Sommerau"},
 {"elevation": 632.0, "lat": 47.3422926, "lon": 8.8171292, "name": "Blume"},
 {"elevation": 413.0, "lat": 47.3772976, "lon": 8.5269997, "name": "Sonne"},
 {"elevation": 437.0, "lat": 47.4198706, "lon": 8.5480159, "name": "Rebstock"},
 {"elevation": 437.0, "lat": 47.4202502, "lon": 8.5484299, "name": "Dông Quê"},
 {"elevation": 444.0,
  "lat": 47.4194842,
  "lon": 8.5469086,
  "name": "Family Grill"},
 {"elevation": 444.0,
  "lat": 47.4100617,
  "lon": 8.5464781,
  "name": "Metzgerhalle"},
 {"elevation": 444.0,
  "lat": 47.4098258,
  "lon": 8.5464212,
  "name": "Rolli's Steakhouse"},
 {"elevation": 443.0, "lat": 47.4109387, "lon": 8.5469906, "name": "Bellucci"},
 {"elevation": 615.0,
  "lat": 47.4113636,
  "lon": 8.7936211,
  "name": "Schlossberg"},
 {"elevation": 539.0,
  "lat": 47.7350791,
  "lon": 8.8182771,
  "name": "Gasthaus Rosenegg"},
 {"elevation": 421.0, "lat": 47.1109984, "lon": 8.3863501, "name": "Hirschen"},
 {"elevation": 425.0, "lat": 47.1151436, "lon": 8.3897938, "name": "Fulmine"},
 {"elevation": 415.0, "lat": 47.1120925, "lon": 8.364716, "name": "Die Perle"},
 {"elevation": 414.0, "lat": 47.1034806, "lon": 8.3743597, "name": "Oasis"},
 {"elevation": 416.0, "lat": 47.3756685, "lon": 8.5243755, "name": "Kobal"},
 {"elevation": 628.0, "lat": 47.3960256, "lon": 8.7730134, "name": "Krone"},
 {"elevation": 631.0, "lat": 47.3832255, "lon": 8.8392115, "name": "Freihof"},
 {"elevation": 762.0, "lat": 47.3951356, "lon": 8.8766773, "name": "Heubode"},
 {"elevation": 579.0, "lat": 47.4113972, "lon": 8.8601694, "name": "Tablat"},
 {"elevation": 425.0, "lat": 47.4717395, "lon": 8.4855386, "name": "Neuhaus"},
 {"elevation": 411.0, "lat": 47.4814081, "lon": 8.4831017, "name": "Frieden"},
 {"elevation": 422.0,
  "lat": 47.4803627,
  "lon": 8.4855098,
  "name": "Da Pepino Niederhasli ✦ Italienisches & Schweizerisches Restaurant"},
 {"elevation": 412.0, "lat": 47.377552, "lon": 8.4983437, "name": "Nikos"},
 {"elevation": 441.0, "lat": 47.0444975, "lon": 8.308674, "name": "Neustadt"},
 {"elevation": 414.0,
  "lat": 47.3765292,
  "lon": 8.5259639,
  "name": "Casa Helvetia"},
 {"elevation": 413.0, "lat": 47.3775516, "lon": 8.5262968, "name": "Tenz Momo"},
 {"elevation": 438.0,
  "lat": 47.4148171,
  "lon": 8.5408969,
  "name": "Jaime El Barco"},
 {"elevation": 443.0,
  "lat": 47.4143135,
  "lon": 8.5408549,
  "name": "Kitchen & Bar by Courtyard"},
 {"elevation": 444.0,
  "lat": 47.4092055,
  "lon": 8.5462331,
  "name": "Santa Lucia"},
 {"elevation": 449.0, "lat": 47.4099302, "lon": 8.5457062, "name": "Cheyenne"},
 {"elevation": 414.0,
  "lat": 47.3792831,
  "lon": 8.4948742,
  "name": "Il Salento"},
 {"elevation": 417.0, "lat": 47.3761736, "lon": 8.522301, "name": "La Baracca"},
 {"elevation": 415.0,
  "lat": 47.3739825,
  "lon": 8.5222246,
  "name": "Chichería Cantina"},
 {"elevation": 435.0, "lat": 47.4659737, "lon": 8.4987914, "name": "Trube"},
 {"elevation": 417.0,
  "lat": 47.375039,
  "lon": 8.5281814,
  "name": "Fribourger Stübli"},
 {"elevation": 413.0, "lat": 47.3825398, "lon": 8.5296036, "name": "LILY'S"},
 {"elevation": 409.0,
  "lat": 47.3818876,
  "lon": 8.535575,
  "name": "Saravanaa Bhavan"},
 {"elevation": 419.0, "lat": 47.3758295, "lon": 8.5164278, "name": "FiveSpice"},
 {"elevation": 417.0, "lat": 47.3748589, "lon": 8.5244037, "name": "Suan Long"},
 {"elevation": 417.0, "lat": 47.374422, "lon": 8.5239732, "name": "Yuma"},
 {"elevation": 417.0, "lat": 47.3738833, "lon": 8.5264947, "name": "Le Cèdre"},
 {"elevation": 415.0,
  "lat": 47.3779936,
  "lon": 8.4926226,
  "name": "Sarajevska Ćevabdžinica"},
 {"elevation": 435.0,
  "lat": 47.4445302,
  "lon": 8.4669657,
  "name": "Furtbächli"},
 {"elevation": 432.0,
  "lat": 47.4708952,
  "lon": 8.510986,
  "name": "Mediterraneo"},
 {"elevation": 465.0,
  "lat": 47.3503407,
  "lon": 8.7179661,
  "name": "Peking Garden"},
 {"elevation": 419.0, "lat": 47.3761196, "lon": 8.5163348, "name": "Derby"},
 {"elevation": 419.0, "lat": 47.376432, "lon": 8.5162699, "name": "Rosi"},
 {"elevation": 414.0, "lat": 47.3778609, "lon": 8.5211491, "name": "EquiTable"},
 {"elevation": 422.0, "lat": 47.375093, "lon": 8.5178314, "name": "L'Artista"},
 {"elevation": 436.0,
  "lat": 47.4141814,
  "lon": 8.6222862,
  "name": "The Butcher"},
 {"elevation": 420.0,
  "lat": 47.3744885,
  "lon": 8.516816,
  "name": "Zur Goldige Guttere"},
 {"elevation": 419.0,
  "lat": 47.3752742,
  "lon": 8.5165912,
  "name": "Miki Ramen"},
 {"elevation": 418.0, "lat": 47.3730187, "lon": 8.5289781, "name": "Masala"},
 {"elevation": 518.0,
  "lat": 47.3939088,
  "lon": 8.7391113,
  "name": "Bauchnuschti"},
 {"elevation": 461.0,
  "lat": 47.420226,
  "lon": 8.5085756,
  "name": "Migros Restaurant"},
 {"elevation": 429.0,
  "lat": 47.5951705,
  "lon": 9.0337046,
  "name": "Obstgarten"},
 {"elevation": 424.0, "lat": 47.5956837, "lon": 9.0324907, "name": "Schäfli"},
 {"elevation": 419.0,
  "lat": 47.3702232,
  "lon": 8.531828,
  "name": "Antica Roma"},
 {"elevation": 728.0, "lat": 47.1374908, "lon": 8.5846995, "name": "La Corona"},
 {"elevation": 473.0,
  "lat": 47.2437622,
  "lon": 8.4631377,
  "name": "zum weissen Rössli"},
 {"elevation": 420.0, "lat": 47.374375, "lon": 8.5177655, "name": "S-Family"},
 {"elevation": 420.0,
  "lat": 47.3759081,
  "lon": 8.5441559,
  "name": "Rheinfelder Bierhalle"},
 {"elevation": 425.0,
  "lat": 47.3697813,
  "lon": 8.5445846,
  "name": "Karl der Grosse"},
 {"elevation": 414.0, "lat": 47.3770714, "lon": 8.5327288, "name": "Camino"},
 {"elevation": 444.0,
  "lat": 47.3655519,
  "lon": 8.6759618,
  "name": "Gasthof zur Krone"},
 {"elevation": 430.0,
  "lat": 47.143154,
  "lon": 8.4276437,
  "name": "Pizzeria Mamma-Mia"},
 {"elevation": 411.0,
  "lat": 47.3807554,
  "lon": 8.5040594,
  "name": "Ooki Pavillon Letzigrund"},
 {"elevation": 431.0,
  "lat": 47.1467712,
  "lon": 8.4330118,
  "name": "BussinEss Cube"},
 {"elevation": 438.0,
  "lat": 47.3441046,
  "lon": 8.693592,
  "name": "Moni + Hanspi's Bäsebeiz"},
 {"elevation": 481.0,
  "lat": 47.340872,
  "lon": 8.7267385,
  "name": "Krone Nossikon"},
 {"elevation": 561.0,
  "lat": 47.3436842,
  "lon": 8.8073823,
  "name": "Oase El Salam"},
 {"elevation": 1088.0,
  "lat": 47.0384413,
  "lon": 8.782571,
  "name": "Roggenbeiz"},
 {"elevation": 442.0,
  "lat": 47.4681616,
  "lon": 8.500638,
  "name": "Restaurant Kornfeld"},
 {"elevation": 410.0,
  "lat": 47.3867368,
  "lon": 8.5340332,
  "name": "Stazione Paradiso"},
 {"elevation": 454.0,
  "lat": 47.3763026,
  "lon": 8.5465369,
  "name": "SV Mensa Polyterrasse"},
 {"elevation": 457.0,
  "lat": 47.3772558,
  "lon": 8.5470004,
  "name": "Clausiusbar"},
 {"elevation": 465.0, "lat": 47.378314, "lon": 8.548805, "name": "food&lab"},
 {"elevation": 494.0,
  "lat": 47.2742842,
  "lon": 8.4462821,
  "name": "Coop Restaurant"},
 {"elevation": 406.0,
  "lat": 47.5885859,
  "lon": 9.0138914,
  "name": "Landgasthof Wartegg"},
 {"elevation": 465.0,
  "lat": 47.4947604,
  "lon": 8.3420476,
  "name": "Restaurant Ampère"},
 {"elevation": 465.0,
  "lat": 47.4950852,
  "lon": 8.3418364,
  "name": "Wirtshaus zur Heimat"},
 {"elevation": 446.0, "lat": 47.5013318, "lon": 8.3485371, "name": "Engel"},
 {"elevation": 435.0,
  "lat": 47.1822238,
  "lon": 8.5253895,
  "name": "ConSol Bistro"},
 {"elevation": 424.0, "lat": 47.1773196, "lon": 8.5177708, "name": "Magnum"},
 {"elevation": 1457.0, "lat": 47.011183, "lon": 8.7901827, "name": "Bärghus"},
 {"elevation": 406.0,
  "lat": 47.2786678,
  "lon": 8.3631548,
  "name": "Gasthof Krone"},
 {"elevation": 800.0,
  "lat": 47.2813301,
  "lon": 8.8793306,
  "name": "Landgasthof Hasenstrick"},
 {"elevation": 415.0, "lat": 47.3745992, "lon": 8.5320588, "name": "Bernerhof"},
 {"elevation": 411.0,
  "lat": 47.3763729,
  "lon": 8.5292946,
  "name": "Ristorante Italia"},
 {"elevation": 482.0, "lat": 47.3962653, "lon": 8.5402882, "name": "Gonzalez"},
 {"elevation": 677.0, "lat": 47.4372912, "lon": 8.7362949, "name": "First"},
 {"elevation": 416.0,
  "lat": 47.6804669,
  "lon": 8.617991,
  "name": "Pizzeria Rebstock"},
 {"elevation": 420.0,
  "lat": 47.3757513,
  "lon": 8.5441431,
  "name": "Johanniter"},
 {"elevation": 420.0,
  "lat": 47.3758264,
  "lon": 8.543866,
  "name": "Bierhalle Wolf"},
 {"elevation": 422.0, "lat": 47.3714506, "lon": 8.540148, "name": "Tao's"},
 {"elevation": 419.0, "lat": 47.3706516, "lon": 8.5402164, "name": "Kropf"},
 {"elevation": 419.0, "lat": 47.3706846, "lon": 8.5406432, "name": "Bindella"},
 {"elevation": 1088.0,
  "lat": 47.0369583,
  "lon": 8.7770213,
  "name": "Restaurant Sager"},
 {"elevation": 459.0,
  "lat": 47.3515441,
  "lon": 8.7133319,
  "name": "Schlüssel Bar"},
 {"elevation": 1192.0,
  "lat": 47.244426,
  "lon": 9.0619028,
  "name": "Panorama-Gasthaus Alp Egg"},
 {"elevation": 413.0,
  "lat": 47.3773665,
  "lon": 8.526169,
  "name": "Aargauerhof"},
 {"elevation": 728.0, "lat": 47.1359193, "lon": 8.5849028, "name": "Lindenhof"},
 {"elevation": 728.0, "lat": 47.1371525, "lon": 8.5844143, "name": "Ägerihof"},
 {"elevation": 761.0, "lat": 47.1329145, "lon": 8.5608328, "name": "Schützen"},
 {"elevation": 461.0, "lat": 47.3395169, "lon": 8.6715334, "name": "Dörfli"},
 {"elevation": 456.0,
  "lat": 47.3404614,
  "lon": 8.6691836,
  "name": "Restaurant Sonne 8372"},
 {"elevation": 463.0,
  "lat": 47.3304445,
  "lon": 8.6811754,
  "name": "Stall-Stube"},
 {"elevation": 663.0,
  "lat": 47.2879569,
  "lon": 8.6542093,
  "name": "Alpenblick"},
 {"elevation": 423.0, "lat": 47.1737401, "lon": 8.5171375, "name": "Tibits"},
 {"elevation": 423.0,
  "lat": 47.1642609,
  "lon": 8.513899,
  "name": "Theater Casino"},
 {"elevation": 1157.0, "lat": 47.0904138, "lon": 8.5684185, "name": "Alpli"},
 {"elevation": 452.0,
  "lat": 47.0952297,
  "lon": 8.3470004,
  "name": "Landgasthof Adler"},
 {"elevation": 539.0,
  "lat": 47.2847611,
  "lon": 8.8236356,
  "name": "Sternen Rotenstein"},
 {"elevation": 466.0, "lat": 47.4999695, "lon": 8.4160699, "name": "Felsenhof"},
 {"elevation": 430.0,
  "lat": 47.4763708,
  "lon": 8.5203837,
  "name": "Il Castello"},
 {"elevation": 415.0, "lat": 47.0997753, "lon": 8.512842, "name": "Sternen"},
 {"elevation": 430.0,
  "lat": 47.3721828,
  "lon": 8.5439082,
  "name": "Zunfthaus zur Schmiden"},
 {"elevation": 430.0, "lat": 47.3724275, "lon": 8.5455328, "name": "Kantorei"},
 {"elevation": 426.0, "lat": 47.6495232, "lon": 8.5672186, "name": "N/A"},
 {"elevation": 435.0, "lat": 47.6540818, "lon": 8.5733024, "name": "Tao Tao"},
 {"elevation": 433.0,
  "lat": 47.6516067,
  "lon": 8.5717071,
  "name": "Mario Belli"},
 {"elevation": 433.0,
  "lat": 47.6511124,
  "lon": 8.570835,
  "name": "Ristorante Pizzeria Europa"},
 {"elevation": 429.0, "lat": 47.6505752, "lon": 8.5688257, "name": "Panda"},
 {"elevation": 429.0, "lat": 47.6508709, "lon": 8.5688893, "name": "Zum Löwen"},
 {"elevation": 418.0, "lat": 47.3748597, "lon": 8.5149995, "name": "Beke"},
 {"elevation": 420.0, "lat": 47.3723327, "lon": 8.5104366, "name": "Schiwago"},
 {"elevation": 425.0,
  "lat": 47.3704984,
  "lon": 8.5099138,
  "name": "Treffpunkt"},
 {"elevation": 764.0,
  "lat": 47.1745996,
  "lon": 8.7117871,
  "name": "Restaurant zum Hirschen"},
 {"elevation": 414.0, "lat": 47.3769125, "lon": 8.5258364, "name": "Gotthard"},
 {"elevation": 471.0, "lat": 47.2421457, "lon": 8.464666, "name": "Spycher"},
 {"elevation": 464.0, "lat": 47.2432946, "lon": 8.4613952, "name": "Mättmi"},
 {"elevation": 460.0,
  "lat": 47.2442494,
  "lon": 8.4579335,
  "name": "Steakhouse Bahnhof"},
 {"elevation": 473.0, "lat": 47.2602363, "lon": 8.8499769, "name": "Al Seda"},
 {"elevation": 478.0, "lat": 47.2606077, "lon": 8.8512817, "name": "Freihof"},
 {"elevation": 495.0, "lat": 47.263635, "lon": 8.8517542, "name": "Sandhof"},
 {"elevation": 495.0,
  "lat": 47.2639855,
  "lon": 8.8519939,
  "name": "Wilder Mann"},
 {"elevation": 444.0, "lat": 47.4527123, "lon": 8.4619438, "name": "Sole Mio"},
 {"elevation": 434.0, "lat": 47.4317595, "lon": 8.5732007, "name": "Frohsinn"},
 {"elevation": 742.0, "lat": 47.3947682, "lon": 8.8270533, "name": "Eintracht"},
 {"elevation": 559.0,
  "lat": 47.1131228,
  "lon": 8.2334166,
  "name": "Marché Neuenkirch Ost"},
 {"elevation": 462.0,
  "lat": 47.3463554,
  "lon": 8.7167614,
  "name": "Ram Bistro & Shop GmbH"},
 {"elevation": 465.0, "lat": 47.3519593, "lon": 8.718404, "name": "Han"},
 {"elevation": 465.0, "lat": 47.3492494, "lon": 8.7184166, "name": "Asialand"},
 {"elevation": 464.0,
  "lat": 47.3491276,
  "lon": 8.7153952,
  "name": "Manga Sushi"},
 {"elevation": 464.0,
  "lat": 47.3500893,
  "lon": 8.715986,
  "name": "Migros Restaurant"},
 {"elevation": 470.0, "lat": 47.351962, "lon": 8.7217586, "name": "Brunnentor"},
 {"elevation": 458.0, "lat": 47.3534217, "lon": 8.7084288, "name": "Mona Lisa"},
 {"elevation": 544.0,
  "lat": 47.3662402,
  "lon": 8.7815082,
  "name": "A Casa di Luca"},
 {"elevation": 459.0, "lat": 47.3501534, "lon": 8.7129546, "name": "al gusto"},
 {"elevation": 459.0,
  "lat": 47.3469322,
  "lon": 8.7132386,
  "name": "Metzgerei Paunovic"},
 {"elevation": 464.0, "lat": 47.3450968, "lon": 8.7161919, "name": "Talgarten"},
 {"elevation": 462.0, "lat": 47.3468325, "lon": 8.7170969, "name": "Arena"},
 {"elevation": 468.0,
  "lat": 47.348979,
  "lon": 8.7208427,
  "name": "Taverna Poseidon"},
 {"elevation": 482.0, "lat": 47.3450125, "lon": 8.733525, "name": "Linde"},
 {"elevation": 482.0, "lat": 47.353266, "lon": 8.7237585, "name": "Aquarius"},
 {"elevation": 447.0,
  "lat": 47.3710269,
  "lon": 8.6435926,
  "name": "Bistro Sunnetal"},
 {"elevation": 447.0, "lat": 47.3757528, "lon": 8.6305457, "name": "Bababobo"},
 {"elevation": 469.0, "lat": 47.3704299, "lon": 8.6390634, "name": "Sternen"},
 {"elevation": 417.0, "lat": 47.3726012, "lon": 8.5273865, "name": "Yu-An"},
 {"elevation": 417.0,
  "lat": 47.372245,
  "lon": 8.5289743,
  "name": "Ristorante Bar Certo"},
 {"elevation": 417.0,
  "lat": 47.3732235,
  "lon": 8.5237696,
  "name": "Köchlistube"},
 {"elevation": 419.0,
  "lat": 47.3716325,
  "lon": 8.5363568,
  "name": "Kaufleuten Restaurant"},
 {"elevation": 448.0,
  "lat": 47.4963918,
  "lon": 8.7402957,
  "name": "Ristorante Pizzeria al Agi-M"},
 {"elevation": 449.0,
  "lat": 47.4958068,
  "lon": 8.7380951,
  "name": "Bistrot George"},
 {"elevation": 448.0, "lat": 47.4943149, "lon": 8.7407208, "name": "Cucina"},
 {"elevation": 444.0, "lat": 47.5003358, "lon": 8.727246, "name": "Strauss"},
 {"elevation": 442.0,
  "lat": 47.5004628,
  "lon": 8.7268709,
  "name": "Rosa Pulver"},
 {"elevation": 442.0,
  "lat": 47.5008859,
  "lon": 8.7260018,
  "name": "Coop Restaurant"},
 {"elevation": 442.0,
  "lat": 47.5009387,
  "lon": 8.7252033,
  "name": "Santa Lucia"},
 {"elevation": 446.0,
  "lat": 47.4989829,
  "lon": 8.7262079,
  "name": "Restaurant Trübli"},
 {"elevation": 446.0,
  "lat": 47.4984254,
  "lon": 8.7261656,
  "name": "Typisch Thai"},
 {"elevation": 446.0, "lat": 47.4977995, "lon": 8.7278351, "name": "La Perla"},
 {"elevation": 449.0, "lat": 47.498871, "lon": 8.7301867, "name": "Obergass"},
 {"elevation": 449.0, "lat": 47.4996801, "lon": 8.7298391, "name": "Sonne"},
 {"elevation": 443.0, "lat": 47.500123, "lon": 8.7291699, "name": "La Pergola"},
 {"elevation": 450.0,
  "lat": 47.4997238,
  "lon": 8.7287787,
  "name": "Cantinetta Bindella"},
 {"elevation": 444.0, "lat": 47.4987259, "lon": 8.7247369, "name": "Orsini"},
 {"elevation": 443.0, "lat": 47.499542, "lon": 8.7201703, "name": "Stricker’s"},
 {"elevation": 433.0, "lat": 47.5019996, "lon": 8.7185647, "name": "Bellevue"},
 {"elevation": 436.0, "lat": 47.5023945, "lon": 8.7182843, "name": "Stadion"},
 {"elevation": 435.0, "lat": 47.5060238, "lon": 8.7148178, "name": "Central"},
 {"elevation": 437.0, "lat": 47.5042298, "lon": 8.7206222, "name": "No18"},
 {"elevation": 437.0, "lat": 47.5046164, "lon": 8.7195435, "name": "Tandoor"},
 {"elevation": 435.0, "lat": 47.5052041, "lon": 8.7172595, "name": "Piazza"},
 {"elevation": 442.0,
  "lat": 47.5077581,
  "lon": 8.7253968,
  "name": "Äusserer Lindhof"},
 {"elevation": 410.0, "lat": 47.381874, "lon": 8.5338089, "name": "Uncle 7"},
 {"elevation": 410.0, "lat": 47.3819982, "lon": 8.5336329, "name": "Vulkan"},
 {"elevation": 459.0, "lat": 47.4482448, "lon": 8.524811, "name": "Tröpfli"},
 {"elevation": 457.0, "lat": 47.745337, "lon": 8.4447416, "name": "Toscana"},
 {"elevation": 542.0,
  "lat": 47.3153841,
  "lon": 8.4682427,
  "name": "Bäckerei-Café Betschart"},
 {"elevation": 411.0,
  "lat": 47.3777467,
  "lon": 8.5244364,
  "name": "Restaurant B"},
 {"elevation": 429.0, "lat": 47.7341081, "lon": 8.7777738, "name": "Sonne"},
 {"elevation": 435.0, "lat": 47.7347045, "lon": 8.7820694, "name": "Adler"},
 {"elevation": 407.0,
  "lat": 47.3848593,
  "lon": 8.5084472,
  "name": "Santa Lucia Subito"},
 {"elevation": 407.0,
  "lat": 47.6597748,
  "lon": 8.8592046,
  "name": "Restaurant Ilge"},
 {"elevation": 404.0,
  "lat": 47.6604409,
  "lon": 8.8582045,
  "name": "Salmenstübli"},
 {"elevation": 407.0,
  "lat": 47.6594052,
  "lon": 8.8591488,
  "name": "Weinstube Sonne"},
 {"elevation": 447.0,
  "lat": 47.3865398,
  "lon": 8.5414596,
  "name": "Pizzeria Corallo"},
 {"elevation": 477.0, "lat": 47.3861132, "lon": 8.5452851, "name": "Kreis 6"},
 {"elevation": 414.0,
  "lat": 47.3830272,
  "lon": 8.5396636,
  "name": "Chuchi am Wasser"},
 {"elevation": 416.0, "lat": 47.1244893, "lon": 8.3969768, "name": "Tell"},
 {"elevation": 448.0, "lat": 47.3437776, "lon": 8.7016315, "name": "Seestern"},
 {"elevation": 453.0,
  "lat": 47.3447459,
  "lon": 8.7044638,
  "name": "Pizza Forte"},
 {"elevation": 440.0, "lat": 47.4111195, "lon": 8.6454975, "name": "Sternen"},
 {"elevation": 435.0,
  "lat": 47.4162667,
  "lon": 8.6345582,
  "name": "Pizzeria La Fontana"},
 {"elevation": 549.0, "lat": 47.0767237, "lon": 8.4475571, "name": "Alpenhof"},
 {"elevation": 585.0,
  "lat": 47.6416415,
  "lon": 8.4844529,
  "name": "Hofgut Albführen"},
 {"elevation": 439.0,
  "lat": 46.9946018,
  "lon": 8.6062595,
  "name": "Gasthaus Ochsen"},
 {"elevation": 427.0, "lat": 47.4961895, "lon": 8.6986067, "name": "Salitre"},
 {"elevation": 448.0,
  "lat": 47.4242466,
  "lon": 8.5251723,
  "name": "Restaurant Waidhof"},
 {"elevation": 449.0,
  "lat": 47.7455385,
  "lon": 8.4482281,
  "name": "Ristorante il Faro"},
 {"elevation": 430.0,
  "lat": 47.3715334,
  "lon": 8.5457722,
  "name": "zum Grünen Glas"},
 {"elevation": 430.0, "lat": 47.37272, "lon": 8.5438402, "name": "Piadina Bar"},
 {"elevation": 412.0,
  "lat": 47.3708573,
  "lon": 8.5432024,
  "name": "Haus zum Rüden"},
 {"elevation": 430.0,
  "lat": 47.3708655,
  "lon": 8.543806,
  "name": "Mère Catherine"},
 {"elevation": 454.0,
  "lat": 47.7494109,
  "lon": 8.4559812,
  "name": "Gasthaus Napoleon (Deutscher Hof)"},
 {"elevation": 502.0,
  "lat": 47.0838828,
  "lon": 8.3331177,
  "name": "Wirtschaft Trumpf-Buur"},
 {"elevation": 648.0, "lat": 47.266437, "lon": 8.5126206, "name": "Erpel"},
 {"elevation": 417.0,
  "lat": 47.371054,
  "lon": 8.5243486,
  "name": "Arcade Pizzeria"},
 {"elevation": 420.0,
  "lat": 47.3764199,
  "lon": 8.5441261,
  "name": "Weinstube 1923"},
 {"elevation": 420.0, "lat": 47.3760133, "lon": 8.5441095, "name": "La Pasta"},
 {"elevation": 420.0,
  "lat": 47.375826,
  "lon": 8.5441268,
  "name": "Pizzeria Da Raffaele"},
 {"elevation": 420.0, "lat": 47.3756656, "lon": 8.5441177, "name": "N-68"},
 {"elevation": 408.0, "lat": 47.3748977, "lon": 8.5437335, "name": "Iberia"},
 {"elevation": 408.0,
  "lat": 47.3746589,
  "lon": 8.5437374,
  "name": "Osteria Borgo"},
 {"elevation": 408.0,
  "lat": 47.3736974,
  "lon": 8.5436412,
  "name": "Steakhouse Old Town"},
 {"elevation": 408.0, "lat": 47.3734874, "lon": 8.5436348, "name": "Vallocaia"},
 {"elevation": 421.0,
  "lat": 47.3730001,
  "lon": 8.5438598,
  "name": "Brasserie Louis"},
 {"elevation": 412.0,
  "lat": 47.3729061,
  "lon": 8.5436598,
  "name": "Spaghetti Factory"},
 {"elevation": 408.0,
  "lat": 47.3729877,
  "lon": 8.5436586,
  "name": "Trattoria Sempre"},
 {"elevation": 430.0,
  "lat": 47.3723807,
  "lon": 8.5439299,
  "name": "Raclette Factory"},
 {"elevation": 412.0,
  "lat": 47.3721304,
  "lon": 8.5437352,
  "name": "Rheinfelder Bierhaus"},
 {"elevation": 430.0,
  "lat": 47.3712211,
  "lon": 8.5441611,
  "name": "Bodega Española"},
 {"elevation": 430.0, "lat": 47.370856, "lon": 8.5445409, "name": "Cucina"},
 {"elevation": 469.0,
  "lat": 47.2416014,
  "lon": 8.8275643,
  "name": "Gasthof Frohberg"},
 {"elevation": 403.0, "lat": 47.3405767, "lon": 8.5381016, "name": "Wöschi"},
 {"elevation": 455.0,
  "lat": 47.4195084,
  "lon": 8.5439267,
  "name": "Restaurant Sunneberg"},
 {"elevation": 409.0, "lat": 47.239119, "lon": 8.7195317, "name": "Frohsinn"},
 {"elevation": 438.0, "lat": 47.0006798, "lon": 8.6057433, "name": "Pluspunkt"},
 {"elevation": 439.0, "lat": 46.9957987, "lon": 8.6065409, "name": "Lotus"},
 {"elevation": 436.0,
  "lat": 46.9939799,
  "lon": 8.6051811,
  "name": "Brunnerhof Bar"},
 {"elevation": 440.0, "lat": 46.9949539, "lon": 8.603167, "name": "Bacco"},
 {"elevation": 436.0,
  "lat": 46.9941529,
  "lon": 8.6057681,
  "name": "Weisses Rössli"},
 {"elevation": 436.0, "lat": 46.9942843, "lon": 8.6057874, "name": "Rütli Bar"},
 {"elevation": 436.0,
  "lat": 46.9938459,
  "lon": 8.6056629,
  "name": "eliteburger"},
 {"elevation": 412.0, "lat": 47.5823434, "lon": 9.044616, "name": "Rössli"},
 {"elevation": 449.0, "lat": 47.4456624, "lon": 8.4048565, "name": "Frohsinn"},
 {"elevation": 428.0,
  "lat": 47.4462741,
  "lon": 8.3869973,
  "name": "Restaurant alte Post"},
 {"elevation": 433.0,
  "lat": 47.4597671,
  "lon": 8.3891086,
  "name": "Gasthof Höfli"},
 {"elevation": 633.0,
  "lat": 47.4361151,
  "lon": 8.4070008,
  "name": "Waldschenke Altberg"},
 {"elevation": 496.0, "lat": 47.1758434, "lon": 8.1076661, "name": "Time Out"},
 {"elevation": 402.0,
  "lat": 47.4084665,
  "lon": 8.4396798,
  "name": "Restaurant zu den zwei Raben"},
 {"elevation": 508.0, "lat": 47.444753, "lon": 8.699068, "name": "Frieden"},
 {"elevation": 498.0,
  "lat": 47.4449031,
  "lon": 8.7002374,
  "name": "Wirtschaft zur Tanne"},
 {"elevation": 427.0, "lat": 47.358483, "lon": 8.5229939, "name": "Vapiano"},
 {"elevation": 427.0,
  "lat": 47.3585224,
  "lon": 8.5233652,
  "name": "Hong-Kong Food Paradise"},
 {"elevation": 421.0,
  "lat": 47.1225152,
  "lon": 8.3509863,
  "name": "Schützenmatt"},
 {"elevation": 446.0,
  "lat": 47.4991725,
  "lon": 8.7313796,
  "name": "Punto e Pasta"},
 {"elevation": 446.0, "lat": 47.496626, "lon": 8.7274275, "name": "Barnabas"},
 {"elevation": 401.0, "lat": 47.2393879, "lon": 8.7182767, "name": "Seeperle"},
 {"elevation": 401.0,
  "lat": 47.2393541,
  "lon": 8.7183933,
  "name": "Kunming Garten"},
 {"elevation": 412.0,
  "lat": 47.2397321,
  "lon": 8.7227526,
  "name": "Il Delfino"},
 {"elevation": 423.0, "lat": 47.2368385, "lon": 8.7359417, "name": "Kreuz"},
 {"elevation": 416.0,
  "lat": 47.2415225,
  "lon": 8.7234404,
  "name": "Alte Krone"},
 {"elevation": 436.0, "lat": 47.0869921, "lon": 8.3537412, "name": "Höfli"},
 {"elevation": 402.0, "lat": 47.3886695, "lon": 8.5191166, "name": "LaSalle"},
 {"elevation": 414.0, "lat": 47.3786937, "lon": 8.5065553, "name": "Paprika"},
 {"elevation": 675.0, "lat": 47.3332018, "lon": 8.6503042, "name": "Wassberg"},
 {"elevation": 444.0,
  "lat": 47.4085258,
  "lon": 8.5464126,
  "name": "RestaurantBar"},
 {"elevation": 438.0,
  "lat": 47.4816005,
  "lon": 8.4573262,
  "name": "Pinocchio Pizza"},
 {"elevation": 416.0, "lat": 47.4118122, "lon": 8.2406074, "name": "Saga Khan"},
 {"elevation": 420.0, "lat": 47.4117036, "lon": 8.2311472, "name": "Brauerei"},
 {"elevation": 412.0,
  "lat": 47.6926899,
  "lon": 8.7170937,
  "name": "Restaurant Waldheim"},
 {"elevation": 416.0,
  "lat": 47.2404892,
  "lon": 8.7242123,
  "name": "Migros Restaurant"},
 {"elevation": 477.0,
  "lat": 47.2846978,
  "lon": 8.5668693,
  "name": "Golden Food"},
 {"elevation": 439.0,
  "lat": 47.0034068,
  "lon": 8.6194598,
  "name": "Primo shisha bar"},
 {"elevation": 419.0,
  "lat": 47.1422322,
  "lon": 8.4565977,
  "name": "Wildenmann"},
 {"elevation": 543.0,
  "lat": 47.3147558,
  "lon": 8.4690237,
  "name": "Restaurant Linde"},
 {"elevation": 444.0,
  "lat": 47.1611214,
  "lon": 8.4397932,
  "name": "Restaurant Bösch"},
 {"elevation": 417.0,
  "lat": 47.3709038,
  "lon": 8.5233636,
  "name": "Restaurant Bahnhof Wiedikon"},
 {"elevation": 411.0,
  "lat": 47.1727745,
  "lon": 8.5046063,
  "name": "Hafenrestaurant"},
 {"elevation": 418.0, "lat": 47.1731574, "lon": 8.506438, "name": "Podium 41"},
 {"elevation": 429.0,
  "lat": 47.2311845,
  "lon": 8.8863725,
  "name": "Krone Wagen"},
 {"elevation": 438.0, "lat": 47.3956584, "lon": 8.6075448, "name": "Da Carlo"},
 {"elevation": 413.0, "lat": 47.2538901, "lon": 8.6902208, "name": "Choi's"},
 {"elevation": 633.0,
  "lat": 47.3562321,
  "lon": 8.6286055,
  "name": "zur Trotte"},
 {"elevation": 660.0, "lat": 47.322281, "lon": 8.65947, "name": "Schürli"},
 {"elevation": 419.0, "lat": 47.0630642, "lon": 8.2989402, "name": "Regatta"},
 {"elevation": 529.0, "lat": 47.268423, "lon": 8.8186792, "name": "Löwen"},
 {"elevation": 508.0,
  "lat": 47.2568396,
  "lon": 8.8001575,
  "name": "Trattoria Pizzeria Sale e Pepe"},
 {"elevation": 542.0, "lat": 47.4104183, "lon": 8.3271198, "name": "Schöneck"},
 {"elevation": 506.0,
  "lat": 47.4082738,
  "lon": 8.7265832,
  "name": "Rössli Illnau"},
 {"elevation": 443.0, "lat": 47.304716, "lon": 8.3163046, "name": "Terminus"},
 {"elevation": 448.0, "lat": 47.2963719, "lon": 8.22045, "name": "Delphin"},
 {"elevation": 468.0,
  "lat": 47.5217111,
  "lon": 8.7872603,
  "name": "Gasthof Storchen"},
 {"elevation": 538.0, "lat": 47.3756214, "lon": 8.761926, "name": "Speck"},
 {"elevation": 483.0, "lat": 47.0934573, "lon": 8.2714345, "name": "Bären"},
 {"elevation": 424.0, "lat": 47.3260794, "lon": 8.380519, "name": "Huserhof"},
 {"elevation": 410.0, "lat": 47.3241148, "lon": 8.3791979, "name": "Schindeli"},
 {"elevation": 735.0, "lat": 47.1352184, "lon": 8.6129494, "name": "Rössli"},
 {"elevation": 735.0, "lat": 47.1351863, "lon": 8.6134391, "name": "Bären"},
 {"elevation": 735.0, "lat": 47.1350488, "lon": 8.613602, "name": "Ochsen"},
 {"elevation": 535.0,
  "lat": 47.2080126,
  "lon": 8.6872297,
  "name": "Restaurant Burgmoos"},
 {"elevation": 431.0,
  "lat": 47.507301,
  "lon": 8.7108669,
  "name": "(Blumenau) Li-Beirut"},
 {"elevation": 452.0, "lat": 47.4984069, "lon": 8.7381431, "name": "Haku"},
 {"elevation": 433.0, "lat": 47.4912979, "lon": 8.7075577, "name": "Oliveira"},
 {"elevation": 411.0, "lat": 47.5831077, "lon": 8.8662024, "name": "Pfisterei"},
 {"elevation": 436.0, "lat": 47.4238766, "lon": 8.5587045, "name": "Al Dente"},
 {"elevation": 407.0,
  "lat": 47.3448204,
  "lon": 8.3613901,
  "name": "Schlossberg"},
 {"elevation": 966.0,
  "lat": 47.1314026,
  "lon": 8.5347451,
  "name": "Restaurant Hintergeissboden"},
 {"elevation": 902.0,
  "lat": 47.14391,
  "lon": 8.5328371,
  "name": "Restaurant Zugerberg"},
 {"elevation": 415.0,
  "lat": 47.1662915,
  "lon": 8.5142571,
  "name": "Pizzeria San Marco"},
 {"elevation": 683.0,
  "lat": 47.3789828,
  "lon": 8.3650517,
  "name": "Hotel Restaurant Monardo Hasenberg"},
 {"elevation": 446.0,
  "lat": 47.3709637,
  "lon": 8.6393968,
  "name": "Kreuz Debbies Dorfbeiz"},
 {"elevation": 626.0, "lat": 47.4389948, "lon": 8.7796422, "name": "Linde"},
 {"elevation": 529.0,
  "lat": 47.4077482,
  "lon": 8.5078578,
  "name": "Fusion meal & coffee"},
 {"elevation": 485.0,
  "lat": 47.2273869,
  "lon": 8.0781637,
  "name": "Flugplatz Triengen"},
 {"elevation": 441.0, "lat": 47.3217269, "lon": 8.5216676, "name": "Zen"},
 {"elevation": 443.0,
  "lat": 47.3197595,
  "lon": 8.5218071,
  "name": "Restaurant & Pizzaria TOMATE"},
 {"elevation": 614.0,
  "lat": 47.2313131,
  "lon": 8.6125954,
  "name": "Landrestaurant Hanegg"},
 {"elevation": 513.0, "lat": 47.4767862, "lon": 8.9988407, "name": "Pöschtli"},
 {"elevation": 438.0,
  "lat": 47.4918177,
  "lon": 8.5473687,
  "name": "Hecht (Stützli 50)"},
 {"elevation": 1087.0,
  "lat": 47.2452274,
  "lon": 9.1027653,
  "name": "Alpwirtschaft Unterbächen"},
 {"elevation": 411.0,
  "lat": 47.5830331,
  "lon": 8.8663322,
  "name": "Restaurant Mühle"},
 {"elevation": 542.0, "lat": 47.4762294, "lon": 8.9144309, "name": "Ochsen"},
 {"elevation": 469.0,
  "lat": 47.4816698,
  "lon": 8.4516548,
  "name": "Bienengarten"},
 {"elevation": 462.0,
  "lat": 47.4812032,
  "lon": 8.4539352,
  "name": "Altes Gerichtshaus"},
 {"elevation": 622.0, "lat": 47.4546634, "lon": 8.8101376, "name": "Linde"},
 {"elevation": 452.0,
  "lat": 47.3111795,
  "lon": 8.5273108,
  "name": "Bistro 909"},
 {"elevation": 451.0, "lat": 47.3120312, "lon": 8.526914, "name": "Al Ponte"},
 {"elevation": 452.0, "lat": 47.3119018, "lon": 8.5279082, "name": "Capri"},
 {"elevation": 452.0, "lat": 47.3124603, "lon": 8.5274193, "name": "barfüsser"},
 {"elevation": 456.0, "lat": 47.3121147, "lon": 8.5243463, "name": "Flora"},
 {"elevation": 420.0,
  "lat": 47.1917136,
  "lon": 8.8948629,
  "name": "Gasthof Kreuz"},
 {"elevation": 430.0, "lat": 47.1951276, "lon": 8.8952935, "name": "Weinrebe"},
 {"elevation": 452.0,
  "lat": 47.2009741,
  "lon": 8.8950634,
  "name": "Gasthaus Frohe Aussicht"},
 {"elevation": 931.0,
  "lat": 47.1043518,
  "lon": 8.6761317,
  "name": "Restaurant Ochsen"},
 {"elevation": 426.0, "lat": 47.4066086, "lon": 8.006534, "name": "Hirschen"},
 {"elevation": 424.0,
  "lat": 47.4061621,
  "lon": 8.0071813,
  "name": "Steakhaus Kreuz"},
 {"elevation": 1305.0,
  "lat": 47.0863132,
  "lon": 8.6893684,
  "name": "Berggasthaus Nüsell"},
 {"elevation": 401.0, "lat": 47.3987914, "lon": 8.0085406, "name": "Frohsinn"},
 {"elevation": 541.0, "lat": 47.235447, "lon": 8.6476908, "name": "Schönegg"},
 {"elevation": 1195.0,
  "lat": 47.127533,
  "lon": 8.8469205,
  "name": "Bergrestaurant Sattelegg"},
 {"elevation": 407.0,
  "lat": 47.3899318,
  "lon": 8.5212819,
  "name": "threeOfive"},
 {"elevation": 605.0,
  "lat": 47.3503572,
  "lon": 8.6437445,
  "name": "Crown of India"},
 {"elevation": 712.0, "lat": 47.1846397, "lon": 8.7430196, "name": "Itaki"},
 {"elevation": 768.0, "lat": 47.3534311, "lon": 9.0059779, "name": "Schäfli"},
 {"elevation": 478.0,
  "lat": 47.5011375,
  "lon": 8.9548257,
  "name": "Gasthof Linde"},
 {"elevation": 499.0, "lat": 47.4557924, "lon": 8.7875751, "name": "Liebenau"},
 {"elevation": 423.0,
  "lat": 47.352407,
  "lon": 8.277789,
  "name": "Kulturbeiz Chappelehof"},
 {"elevation": 416.0, "lat": 47.3512888, "lon": 8.277006, "name": "Marco Polo"},
 {"elevation": 457.0, "lat": 47.0777867, "lon": 8.2758092, "name": "Kränzlin"},
 {"elevation": 457.0,
  "lat": 47.077743,
  "lon": 8.2769646,
  "name": "Pizzeria Panorama"},
 {"elevation": 455.0,
  "lat": 47.0767241,
  "lon": 8.2755621,
  "name": "China Take Away"},
 {"elevation": 430.0, "lat": 47.08042, "lon": 8.2849514, "name": "s' Rossmoos"},
 {"elevation": 443.0, "lat": 47.0777172, "lon": 8.2783741, "name": "Gersag"},
 {"elevation": 437.0, "lat": 47.0699783, "lon": 8.2829401, "name": "Bahnhof"},
 {"elevation": 435.0, "lat": 47.0708284, "lon": 8.2833741, "name": "Seetal"},
 {"elevation": 435.0, "lat": 47.4398782, "lon": 8.4405927, "name": "Zur Au"},
 {"elevation": 503.0, "lat": 47.2775894, "lon": 8.4544117, "name": "Papaya"},
 {"elevation": 487.0, "lat": 47.2810068, "lon": 8.4538205, "name": "il sogno"},
 {"elevation": 497.0, "lat": 47.2812917, "lon": 8.4548028, "name": "Krone"},
 {"elevation": 486.0,
  "lat": 47.282172,
  "lon": 8.453547,
  "name": "Restaurant Freihof Pizzeria da Galipo"},
 {"elevation": 438.0, "lat": 47.4788438, "lon": 8.5545419, "name": "Wiesental"},
 {"elevation": 514.0, "lat": 47.4445612, "lon": 8.7982373, "name": "Freihof"},
 {"elevation": 495.0,
  "lat": 47.2508188,
  "lon": 8.7688538,
  "name": "Baumgarten"},
 {"elevation": 484.0,
  "lat": 47.3216011,
  "lon": 8.5450259,
  "name": "Dal Boungustaio"},
 {"elevation": 473.0,
  "lat": 47.3259006,
  "lon": 8.5448146,
  "name": "Oberer Mönchhof"},
 {"elevation": 409.0,
  "lat": 47.3821979,
  "lon": 8.5317241,
  "name": "LA Brea SoCal Tacos"},
 {"elevation": 413.0, "lat": 47.382624, "lon": 8.5312467, "name": "Spicy Box"},
 {"elevation": 692.0,
  "lat": 47.4520124,
  "lon": 8.8459788,
  "name": "Gasthof Gyrenbad"},
 {"elevation": 483.0, "lat": 47.2870788, "lon": 8.5431693, "name": "Bahnhof"},
 {"elevation": 483.0,
  "lat": 47.2865771,
  "lon": 8.5436459,
  "name": "Pizzeria Milano"},
 {"elevation": 421.0, "lat": 47.3734574, "lon": 8.5449046, "name": "cue"},
 {"elevation": 1413.0,
  "lat": 47.0516261,
  "lon": 8.6834336,
  "name": "Berggasthof Haggenegg"},
 {"elevation": 408.0,
  "lat": 47.3887272,
  "lon": 8.5213785,
  "name": "Nooch Asian Kitchen"},
 {"elevation": 410.0, "lat": 47.3844648, "lon": 8.5278368, "name": "Tibetasia"},
 {"elevation": 1031.0,
  "lat": 47.2408289,
  "lon": 9.069032,
  "name": "Alpwirtschaft Klosterberg"},
 {"elevation": 436.0, "lat": 46.993836, "lon": 8.6053232, "name": "Kombüse"},
 {"elevation": 456.0, "lat": 47.2795099, "lon": 8.5744061, "name": "Liebegg"},
 {"elevation": 422.0, "lat": 47.1744003, "lon": 8.5133152, "name": "Meating"},
 {"elevation": 418.0,
  "lat": 47.3581573,
  "lon": 8.5225902,
  "name": "Rüsterei Grill"},
 {"elevation": 662.0, "lat": 47.2042244, "lon": 8.5754971, "name": "Schäfli"},
 {"elevation": 783.0,
  "lat": 47.1528217,
  "lon": 8.5512902,
  "name": "Rest. Brunegg"},
 {"elevation": 1007.0,
  "lat": 47.1102341,
  "lon": 8.5457622,
  "name": "Pfaffenboden"},
 {"elevation": 410.0, "lat": 47.384599, "lon": 8.5275777, "name": "Damas"},
 {"elevation": 631.0,
  "lat": 47.51397,
  "lon": 8.1208584,
  "name": "Sennhütte (Besenbeiz)"},
 {"elevation": 699.0, "lat": 47.154417, "lon": 8.5599057, "name": "Schmittli"},
 {"elevation": 418.0, "lat": 47.3720798, "lon": 8.5270244, "name": "Werd"},
 {"elevation": 417.0, "lat": 47.3731595, "lon": 8.5261099, "name": "Paneolio"},
 {"elevation": 531.0, "lat": 47.5550165, "lon": 9.041509, "name": "Ochsen"},
 {"elevation": 417.0, "lat": 47.6143412, "lon": 8.7257403, "name": "Thalacker"},
 {"elevation": 728.0,
  "lat": 47.2728042,
  "lon": 8.2963187,
  "name": "Guggibad Gasthof & Grill"},
 {"elevation": 415.0, "lat": 47.3729919, "lon": 8.5327533, "name": "Saigon"},
 {"elevation": 416.0, "lat": 47.363839, "lon": 8.5322818, "name": "Choupette"},
 {"elevation": 410.0, "lat": 47.3836276, "lon": 8.5287302, "name": "Eisenhof"},
 {"elevation": 419.0,
  "lat": 47.2030757,
  "lon": 9.0088326,
  "name": "Pizzeria Traube"},
 {"elevation": 419.0,
  "lat": 47.1982195,
  "lon": 9.005327,
  "name": "Chronä Bänggä"},
 {"elevation": 409.0, "lat": 47.1976209, "lon": 9.0032891, "name": "Erle"},
 {"elevation": 613.0, "lat": 47.3007302, "lon": 9.0870906, "name": "National"},
 {"elevation": 521.0,
  "lat": 47.4280668,
  "lon": 8.6851994,
  "name": "Villa Barone"},
 {"elevation": 514.0,
  "lat": 47.4287564,
  "lon": 8.6856604,
  "name": "Migros Restaurant"},
 {"elevation": 405.0, "lat": 47.3024266, "lon": 8.5609232, "name": "Bodrum"},
 {"elevation": 413.0,
  "lat": 47.2526815,
  "lon": 8.6916103,
  "name": "Ristorante da Mamma Lisetta"},
 {"elevation": 411.0, "lat": 47.2026366, "lon": 8.7783335, "name": "Capolinea"},
 {"elevation": 450.0, "lat": 47.4994389, "lon": 8.7277569, "name": "Molino"},
 {"elevation": 1533.0,
  "lat": 47.0182751,
  "lon": 8.7003354,
  "name": "Berggasthaus Rotenfluh"},
 {"elevation": 996.0,
  "lat": 47.0994474,
  "lon": 8.6193561,
  "name": "Alpwirtschaft Schornenrain"},
 {"elevation": 1142.0, "lat": 47.1022435, "lon": 8.6139169, "name": "Ramenegg"},
 {"elevation": 747.0, "lat": 47.0922752, "lon": 8.6343105, "name": "Schornen"},
 {"elevation": 639.0, "lat": 47.3685211, "lon": 8.8782322, "name": "Bahnhof"},
 {"elevation": 478.0, "lat": 47.2391388, "lon": 8.9215418, "name": "Kreuz"},
 {"elevation": 482.0,
  "lat": 47.2412135,
  "lon": 8.9232976,
  "name": "Wirtschaft zum Adler"},
 {"elevation": 413.0, "lat": 47.3761362, "lon": 8.5338456, "name": "Cucina"},
 {"elevation": 421.0,
  "lat": 47.51362,
  "lon": 8.6409037,
  "name": "Restaurant Linde"},
 {"elevation": 404.0,
  "lat": 47.3885734,
  "lon": 8.4847702,
  "name": "Roter Stein"},
 {"elevation": 1160.0,
  "lat": 47.1335993,
  "lon": 8.6646342,
  "name": "Bergbeizli St. Jost"},
 {"elevation": 540.0, "lat": 47.0510507, "lon": 8.3600494, "name": "Schönau"},
 {"elevation": 904.0, "lat": 47.1621973, "lon": 8.5737095, "name": "N/A"},
 {"elevation": 429.0,
  "lat": 47.2592564,
  "lon": 8.6795228,
  "name": "Zehn Eat & Shop"},
 {"elevation": 435.0, "lat": 47.39337, "lon": 8.5294371, "name": "Nordbrücke"},
 {"elevation": 435.0,
  "lat": 47.3935843,
  "lon": 8.5296761,
  "name": "The Artisan"},
 {"elevation": 423.0, "lat": 47.3645425, "lon": 8.520783, "name": "Chez Nhan"},
 {"elevation": 428.0, "lat": 47.3606785, "lon": 8.5179538, "name": "Vietnam"},
 {"elevation": 428.0, "lat": 47.3616035, "lon": 8.5180157, "name": "Utoburg"},
 {"elevation": 462.0,
  "lat": 47.402817,
  "lon": 8.5355605,
  "name": "Fallender Brunnenhof"},
 {"elevation": 430.0,
  "lat": 47.3750359,
  "lon": 8.4841815,
  "name": "Zum Weissen Rössli"},
 {"elevation": 439.0,
  "lat": 47.4135291,
  "lon": 8.5387892,
  "name": "Hong-Kong Food Paradise"},
 {"elevation": 594.0, "lat": 47.6853871, "lon": 8.8985261, "name": "Falconera"},
 {"elevation": 417.0,
  "lat": 47.3602524,
  "lon": 8.5521363,
  "name": "Stripped Pizza"},
 {"elevation": 1544.0,
  "lat": 47.0439426,
  "lon": 8.7338583,
  "name": "Wirtschaft Furggelen"},
 {"elevation": 428.0, "lat": 47.3090025, "lon": 8.5544369, "name": "da Toni"},
 {"elevation": 428.0, "lat": 47.3089881, "lon": 8.5551974, "name": "Rose"},
 {"elevation": 434.0, "lat": 47.4085621, "lon": 8.5953513, "name": "Spiga"},
 {"elevation": 470.0,
  "lat": 47.213763,
  "lon": 8.265386,
  "name": "Hotel Sternen;Sternen"},
 {"elevation": 481.0,
  "lat": 47.1248598,
  "lon": 8.4443773,
  "name": "Restaurant Strauss"},
 {"elevation": 447.0,
  "lat": 47.604436,
  "lon": 8.3473517,
  "name": "Gasthof Hirschen"},
 {"elevation": 507.0,
  "lat": 47.482012,
  "lon": 8.9910576,
  "name": "Thai Restaurant Freihof"},
 {"elevation": 421.0,
  "lat": 47.372707,
  "lon": 8.519818,
  "name": "Zum Guten Glück"},
 {"elevation": 550.0,
  "lat": 46.9831235,
  "lon": 8.5783293,
  "name": "Restaurant Volligen"},
 {"elevation": 738.0, "lat": 47.4120943, "lon": 9.0404177, "name": "Eintracht"},
 {"elevation": 738.0, "lat": 47.4118258, "lon": 9.0399222, "name": "Rössli"},
 {"elevation": 418.0,
  "lat": 47.6044909,
  "lon": 9.0098944,
  "name": "Il Castello"},
 {"elevation": 442.0, "lat": 47.507148, "lon": 8.7257511, "name": "San Remo"},
 {"elevation": 596.0,
  "lat": 47.3028389,
  "lon": 8.6164037,
  "name": "Blüemlisalp"},
 {"elevation": 1124.0, "lat": 47.0414471, "lon": 8.7868598, "name": "Hirschen"},
 {"elevation": 413.0,
  "lat": 47.3020648,
  "lon": 8.5925402,
  "name": "Erlibacherhof"},
 {"elevation": 414.0, "lat": 47.3822104, "lon": 8.4838926, "name": "enso"},
 {"elevation": 414.0, "lat": 47.3779179, "lon": 8.5160184, "name": "Café Boy"},
 {"elevation": 444.0, "lat": 47.0472189, "lon": 8.3078567, "name": "Ampersand"},
 {"elevation": 466.0, "lat": 47.3102678, "lon": 8.1148511, "name": "Korzo"},
 {"elevation": 508.0,
  "lat": 47.479326,
  "lon": 8.9994109,
  "name": "Salta In Bocca"},
 {"elevation": 445.0, "lat": 47.0436915, "lon": 8.3119807, "name": "Prizzi"},
 {"elevation": 436.0,
  "lat": 47.044321,
  "lon": 8.3152179,
  "name": "Peperoncini"},
 {"elevation": 441.0,
  "lat": 47.0435442,
  "lon": 8.3127816,
  "name": "Unterlachenhof"},
 {"elevation": 441.0, "lat": 47.043454, "lon": 8.3130492, "name": "Do Re Mi"},
 {"elevation": 445.0,
  "lat": 47.04166,
  "lon": 8.3112416,
  "name": "Grottino 1313"},
 {"elevation": 441.0,
  "lat": 47.0422442,
  "lon": 8.3125027,
  "name": "Seoul Station"},
 {"elevation": 441.0, "lat": 47.0482188, "lon": 8.3140486, "name": "Luce"},
 {"elevation": 441.0, "lat": 47.0443317, "lon": 8.3086867, "name": "Oskar"},
 {"elevation": 443.0, "lat": 47.0462309, "lon": 8.3093801, "name": "Bolero"},
 {"elevation": 445.0, "lat": 47.035338, "lon": 8.3302197, "name": "Mai"},
 {"elevation": 530.0,
  "lat": 47.2883134,
  "lon": 8.8178576,
  "name": "Restaurant Turbolino"},
 {"elevation": 434.0, "lat": 47.0506886, "lon": 8.311603, "name": "Le Piaf"},
 {"elevation": 453.0,
  "lat": 47.0364246,
  "lon": 8.3027748,
  "name": "Militärgarten"},
 {"elevation": 1542.0,
  "lat": 47.0840893,
  "lon": 8.5770518,
  "name": "Berggasthaus Wildspitz"},
 {"elevation": 442.0, "lat": 47.0411821, "lon": 8.3213345, "name": "N'ICE"},
 {"elevation": 471.0,
  "lat": 47.4625075,
  "lon": 8.1808245,
  "name": "Schlossrestaurant Habsburg"},
 {"elevation": 869.0,
  "lat": 47.1744348,
  "lon": 8.7450692,
  "name": "Restaurant Zum Paradies"},
 {"elevation": 428.0, "lat": 47.6477725, "lon": 8.5643305, "name": "Venus"},
 {"elevation": 495.0,
  "lat": 47.6547535,
  "lon": 8.307083,
  "name": "Landgasthof Hirschen"},
 {"elevation": 775.0,
  "lat": 47.7656529,
  "lon": 8.3739553,
  "name": "Gasthaus zur Mittleren Alp"},
 {"elevation": 730.0,
  "lat": 47.7573358,
  "lon": 8.38713,
  "name": "Gasthaus Engel"},
 {"elevation": 1117.0,
  "lat": 47.1133307,
  "lon": 8.5967121,
  "name": "Brandhöhe"},
 {"elevation": 432.0, "lat": 47.1401784, "lon": 8.4271358, "name": "La Tavola"},
 {"elevation": 432.0,
  "lat": 47.1409831,
  "lon": 8.4281395,
  "name": "Pizzeria Club-Noi"},
 {"elevation": 1051.0,
  "lat": 47.0076735,
  "lon": 8.7103908,
  "name": "Berggasthaus Hand"},
 {"elevation": 894.0,
  "lat": 47.2509874,
  "lon": 8.5446028,
  "name": "Bergrestaurant Albishorn"},
 {"elevation": 441.0,
  "lat": 47.0874065,
  "lon": 8.2906836,
  "name": "Restaurant Halten Treff"},
 {"elevation": 424.0, "lat": 47.1756915, "lon": 8.5171271, "name": "Han"},
 {"elevation": 702.0,
  "lat": 47.1820671,
  "lon": 8.8061341,
  "name": "Restaurant Bilstenhof"},
 {"elevation": 451.0, "lat": 47.2978522, "lon": 8.5614469, "name": "Pipponi"},
 {"elevation": 451.0, "lat": 47.2975976, "lon": 8.5620099, "name": "Kunming"},
 {"elevation": 435.0, "lat": 47.5050499, "lon": 8.7184541, "name": "La Rim"},
 {"elevation": 437.0,
  "lat": 47.5048564,
  "lon": 8.7189785,
  "name": "nachbarsbox"},
 {"elevation": 422.0,
  "lat": 47.5108283,
  "lon": 8.6979044,
  "name": "Osteria Mama Rosa"},
 {"elevation": 446.0,
  "lat": 47.4979559,
  "lon": 8.7313352,
  "name": "Bistro Alte Kaserne"},
 {"elevation": 448.0, "lat": 47.5278435, "lon": 8.7112679, "name": "N/A"},
 {"elevation": 1163.0,
  "lat": 47.3154018,
  "lon": 8.9940215,
  "name": "Schindelberg"},
 {"elevation": 458.0,
  "lat": 47.1775189,
  "lon": 8.4260229,
  "name": "Lindenpark"},
 {"elevation": 1038.0,
  "lat": 47.3198255,
  "lon": 8.9660353,
  "name": "Berggasthaus Sennhütte"},
 {"elevation": 413.0, "lat": 47.512034, "lon": 8.6848455, "name": "El Turpial"},
 {"elevation": 406.0, "lat": 47.5163992, "lon": 8.6795583, "name": "Weinberg"},
 {"elevation": 440.0,
  "lat": 47.5026529,
  "lon": 8.7198587,
  "name": "La Bodega Carlo"},
 {"elevation": 441.0,
  "lat": 47.5012974,
  "lon": 8.7212681,
  "name": "Osteria del fiore"},
 {"elevation": 440.0, "lat": 47.4989065, "lon": 8.7212551, "name": "Fu Ji"},
 {"elevation": 436.0,
  "lat": 47.652575,
  "lon": 8.5809955,
  "name": "Il Pavone Blu"},
 {"elevation": 446.0,
  "lat": 47.6261145,
  "lon": 8.5684701,
  "name": "Restaurant zum Bahnhof"},
 {"elevation": 419.0, "lat": 47.6283011, "lon": 8.5745727, "name": "N/A"},
 {"elevation": 413.0,
  "lat": 47.6066338,
  "lon": 8.581422,
  "name": "Golfclub Rheinblick"},
 {"elevation": 404.0,
  "lat": 47.6568077,
  "lon": 8.599331,
  "name": "Rest. Adler"},
 {"elevation": 412.0, "lat": 47.6006211, "lon": 9.0003049, "name": "Adler"},
 {"elevation": 1180.0,
  "lat": 47.303363,
  "lon": 8.9440214,
  "name": "Alp Scheidegg"},
 {"elevation": 414.0,
  "lat": 47.3832538,
  "lon": 8.5416447,
  "name": "Drei Stuben"},
 {"elevation": 414.0,
  "lat": 47.383118,
  "lon": 8.5413332,
  "name": "Pizzeria Veneziana"},
 {"elevation": 438.0,
  "lat": 47.4941104,
  "lon": 8.714503,
  "name": "Pizzeria Schwanen"},
 {"elevation": 932.0, "lat": 47.0577253, "lon": 8.7990884, "name": "Minster"},
 {"elevation": 932.0,
  "lat": 47.0580331,
  "lon": 8.7984423,
  "name": "Restaurant Horat"},
 {"elevation": 909.0,
  "lat": 47.1070942,
  "lon": 8.5693255,
  "name": "Restaurant Alpwirtschaft Sonnegg"},
 {"elevation": 582.0,
  "lat": 47.242074,
  "lon": 8.4958655,
  "name": "Schwiizer Pöschtli"},
 {"elevation": 441.0,
  "lat": 47.5011461,
  "lon": 8.7211262,
  "name": "Maharaja Curry"},
 {"elevation": 441.0,
  "lat": 47.5017718,
  "lon": 8.7209446,
  "name": "Tibet Bistro"},
 {"elevation": 454.0, "lat": 47.4978808, "lon": 8.7235621, "name": "La Torre"},
 {"elevation": 450.0,
  "lat": 47.4981673,
  "lon": 8.7291301,
  "name": "Winti-Kanne"},
 {"elevation": 1162.0,
  "lat": 47.3273441,
  "lon": 8.9869995,
  "name": "Meiersalp"},
 {"elevation": 431.0,
  "lat": 47.5132446,
  "lon": 8.4743042,
  "name": "Restaurant zum Wilden Mann"},
 {"elevation": 437.0, "lat": 47.3964338, "lon": 8.6132097, "name": "Miglio"},
 {"elevation": 437.0, "lat": 47.3962547, "lon": 8.6135679, "name": "Safran"},
 {"elevation": 444.0, "lat": 47.4995183, "lon": 8.7243814, "name": "Boulevard"},
 {"elevation": 446.0, "lat": 47.4986633, "lon": 8.7261331, "name": "Riwaayat"},
 {"elevation": 446.0,
  "lat": 47.4986144,
  "lon": 8.7267513,
  "name": "Restaurant Alterszentrum Neumarkt"},
 {"elevation": 438.0,
  "lat": 47.3968792,
  "lon": 8.6173975,
  "name": "Villa Barone"},
 {"elevation": 431.0, "lat": 47.1662288, "lon": 8.5148039, "name": "Fischmärt"},
 {"elevation": 407.0, "lat": 47.2550262, "lon": 8.61738, "name": "Red Snapper"},
 {"elevation": 410.0,
  "lat": 47.2604991,
  "lon": 8.5969807,
  "name": "Dorfbeiz Schinzenhof"},
 {"elevation": 540.0, "lat": 47.2448049, "lon": 8.6052167, "name": "N/A"},
 {"elevation": 406.0,
  "lat": 47.251478,
  "lon": 8.6278839,
  "name": "Seerestaurant Meilibach"},
 {"elevation": 411.0, "lat": 47.55846, "lon": 8.9006739, "name": "Brauhaus"},
 {"elevation": 443.0,
  "lat": 47.3781835,
  "lon": 8.6453338,
  "name": "Bistro Racket"},
 {"elevation": 1123.0,
  "lat": 47.099643,
  "lon": 8.604202,
  "name": "Hüritalhütte"},
 {"elevation": 434.0,
  "lat": 47.2991179,
  "lon": 8.5613526,
  "name": "ginger indian"},
 {"elevation": 475.0, "lat": 47.6087307, "lon": 8.8720986, "name": "Hirschen"},
 {"elevation": 502.0,
  "lat": 47.2431747,
  "lon": 8.947215,
  "name": "Gasthaus Ochsen"},
 {"elevation": 456.0, "lat": 47.2929131, "lon": 8.5662617, "name": "Al Franco"},
 {"elevation": 426.0, "lat": 47.2939363, "lon": 8.5673718, "name": "Höfli"},
 {"elevation": 418.0,
  "lat": 47.227652,
  "lon": 8.825688,
  "name": "Bottega Club & Lounge"},
 {"elevation": 558.0,
  "lat": 47.2358786,
  "lon": 8.6372507,
  "name": "Cantina Theresa"},
 {"elevation": 415.0,
  "lat": 47.3681056,
  "lon": 8.5358071,
  "name": "Thai Erawan"},
 {"elevation": 720.0, "lat": 47.1935248, "lon": 8.6443898, "name": "Rössli"},
 {"elevation": 415.0,
  "lat": 47.3013581,
  "lon": 8.5623866,
  "name": "Alex Restaurant"},
 {"elevation": 421.0,
  "lat": 47.4170019,
  "lon": 8.047354,
  "name": "Speiserestaurant Traube"},
 {"elevation": 659.0, "lat": 47.2124782, "lon": 8.6051967, "name": "Rigiblick"},
 {"elevation": 412.0,
  "lat": 47.1905179,
  "lon": 8.8506638,
  "name": "Thai Kitchen"},
 {"elevation": 612.0,
  "lat": 47.3801131,
  "lon": 8.3801129,
  "name": "Gasthof Herrenberg"},
 {"elevation": 416.0,
  "lat": 47.528493,
  "lon": 8.6684312,
  "name": "Lovely Burger"},
 {"elevation": 800.0,
  "lat": 47.4285649,
  "lon": 7.9863902,
  "name": "Waldgasthaus Chalet Saalhöhe"},
 {"elevation": 413.0, "lat": 47.3781646, "lon": 8.5109337, "name": "Hardhof"},
 {"elevation": 413.0, "lat": 47.3787576, "lon": 8.5270372, "name": "Gambrinus"},
 {"elevation": 416.0,
  "lat": 47.3847471,
  "lon": 8.5311137,
  "name": "AMO e lino"},
 {"elevation": 476.0, "lat": 47.0383806, "lon": 8.3124322, "name": "Sternegg"},
 {"elevation": 521.0, "lat": 47.1830662, "lon": 8.0745595, "name": "Mostkrug"},
 {"elevation": 439.0,
  "lat": 47.1929794,
  "lon": 8.5231127,
  "name": "Thai Benjarong"},
 {"elevation": 448.0,
  "lat": 47.4141717,
  "lon": 8.6001887,
  "name": "Pak Lok Haus"},
 {"elevation": 559.0,
  "lat": 47.1995321,
  "lon": 8.07224,
  "name": "Restaurant Rössli"},
 {"elevation": 443.0,
  "lat": 47.4994087,
  "lon": 8.71984,
  "name": "El Burrito Feliz"},
 {"elevation": 457.0,
  "lat": 47.3307586,
  "lon": 8.5155905,
  "name": "La Perla Del Sud"},
 {"elevation": 473.0,
  "lat": 47.2043353,
  "lon": 8.5230974,
  "name": "Restaurant Tennis Club Baar"},
 {"elevation": 418.0,
  "lat": 47.3740895,
  "lon": 8.536128,
  "name": "Live sushi fusion restaurant"},
 {"elevation": 410.0,
  "lat": 47.2805087,
  "lon": 8.4041036,
  "name": "Restaurant Othli"},
 {"elevation": 668.0,
  "lat": 47.1895262,
  "lon": 8.6279531,
  "name": "Schützenmatt"},
 {"elevation": 482.0,
  "lat": 46.9780627,
  "lon": 8.5606556,
  "name": "Restaurant Schwybogen"},
 {"elevation": 411.0,
  "lat": 47.5536966,
  "lon": 8.8604266,
  "name": "Restaurant Wiesental"},
 {"elevation": 448.0, "lat": 47.1626131, "lon": 8.4356432, "name": "Schlössli"},
 {"elevation": 444.0,
  "lat": 47.0553634,
  "lon": 8.3102685,
  "name": "Restaurant Barbatti"},
 {"elevation": 404.0, "lat": 47.3906861, "lon": 8.4887363, "name": "Akara‘s"},
 {"elevation": 408.0,
  "lat": 47.387399,
  "lon": 8.4854595,
  "name": "Brasserie Spirgarten"},
 {"elevation": 531.0,
  "lat": 47.3190504,
  "lon": 8.7921202,
  "name": "Pizzeria La Posta"},
 {"elevation": 464.0,
  "lat": 47.3480359,
  "lon": 8.7158807,
  "name": "Tonnarello"},
 {"elevation": 765.0,
  "lat": 47.2802693,
  "lon": 8.1847144,
  "name": "Gasthof Homberg"},
 {"elevation": 474.0,
  "lat": 47.2991609,
  "lon": 8.1191868,
  "name": "Huberstübli"},
 {"elevation": 412.0,
  "lat": 47.1691606,
  "lon": 8.5145711,
  "name": "Juanitos Bodega & Bar"},
 {"elevation": 445.0,
  "lat": 47.3097002,
  "lon": 8.7189493,
  "name": "Ristorante Pizzeria Wollenhof"},
 {"elevation": 444.0,
  "lat": 47.3097613,
  "lon": 8.7217699,
  "name": "Restaurant Ochsen"},
 {"elevation": 446.0, "lat": 47.3121896, "lon": 8.7217911, "name": "Zur Mühle"},
 {"elevation": 411.0,
  "lat": 47.3831915,
  "lon": 8.5000558,
  "name": "Restaurant Singapore"},
 {"elevation": 494.0, "lat": 47.5198452, "lon": 8.3620303, "name": "Leuehof"},
 {"elevation": 798.0,
  "lat": 47.4234516,
  "lon": 8.9123252,
  "name": "Sternen Sitzberg"},
 {"elevation": 801.0,
  "lat": 47.1443343,
  "lon": 8.9088136,
  "name": "Restaurant Kapelle"},
 {"elevation": 436.0,
  "lat": 47.0528222,
  "lon": 8.2961902,
  "name": "Crazy Cactus Tex-Mex"},
 {"elevation": 435.0,
  "lat": 47.3983442,
  "lon": 8.5993968,
  "name": "Schumacher Bistro"},
 {"elevation": 444.0,
  "lat": 47.0525691,
  "lon": 8.3062725,
  "name": "Magdalena (restaurant upstairs)"},
 {"elevation": 420.0,
  "lat": 47.3771406,
  "lon": 8.0301756,
  "name": "Roggenhausen"},
 {"elevation": 801.0,
  "lat": 47.4150982,
  "lon": 8.9039658,
  "name": "Gasthaus zum Freihof"},
 {"elevation": 938.0, "lat": 47.3443972, "lon": 8.8937011, "name": "Sunnenhof"},
 {"elevation": 1072.0,
  "lat": 47.3004492,
  "lon": 8.9636933,
  "name": "Bergrestaurant Poo-Alp"},
 {"elevation": 433.0,
  "lat": 47.0478181,
  "lon": 8.3434633,
  "name": "Richemont Gastronomie & Hotel"},
 {"elevation": 970.0,
  "lat": 47.2880009,
  "lon": 9.0126004,
  "name": "Alpwirtschaft Altschwand"},
 {"elevation": 466.0, "lat": 47.4822412, "lon": 8.7612677, "name": "Rössli"},
 {"elevation": 420.0, "lat": 47.3752173, "lon": 8.5447395, "name": "Zhong Hua"},
 {"elevation": 469.0,
  "lat": 47.3799672,
  "lon": 8.5469246,
  "name": "Restaurant Haldenbach"},
 {"elevation": 477.0,
  "lat": 47.3805744,
  "lon": 8.5483371,
  "name": "Ristorante Al Forno da Angelo"},
 {"elevation": 465.0, "lat": 47.3786854, "lon": 8.547952, "name": "Hot Pasta"},
 {"elevation": 428.0,
  "lat": 47.3898533,
  "lon": 8.3943882,
  "name": "Die Pizza Italia"},
 {"elevation": 421.0, "lat": 47.3740356, "lon": 8.544474, "name": "Wien Zeile"},
 {"elevation": 408.0, "lat": 47.3735273, "lon": 8.5430124, "name": "Bianchi"},
 {"elevation": 408.0,
  "lat": 47.3734009,
  "lon": 8.5434614,
  "name": "Weinschenke"},
 {"elevation": 408.0,
  "lat": 47.3733831,
  "lon": 8.5436343,
  "name": "Simon's Steakhouse"},
 {"elevation": 412.0,
  "lat": 47.372579,
  "lon": 8.5433042,
  "name": "Blue Monkey"},
 {"elevation": 421.0, "lat": 47.3731853, "lon": 8.5446831, "name": "Madrid"},
 {"elevation": 430.0,
  "lat": 47.3724243,
  "lon": 8.5452101,
  "name": "Bauern Schänke"},
 {"elevation": 443.0,
  "lat": 47.4040619,
  "lon": 8.571762,
  "name": "Restaurant Gasthof Hirschen"},
 {"elevation": 436.0,
  "lat": 47.3992293,
  "lon": 8.6211314,
  "name": "Peking Garden"},
 {"elevation": 444.0,
  "lat": 47.0494899,
  "lon": 8.3007794,
  "name": "Drei Könige"},
 {"elevation": 437.0, "lat": 47.0500311, "lon": 8.3019634, "name": "Toscana"},
 {"elevation": 417.0,
  "lat": 47.3689525,
  "lon": 8.5384389,
  "name": "Coco Grill & Bar"},
 {"elevation": 419.0, "lat": 47.3702331, "lon": 8.5328922, "name": "Nagasui"},
 {"elevation": 440.0,
  "lat": 47.1544641,
  "lon": 8.4393549,
  "name": "Bar Pizzeria Milano"},
 {"elevation": 445.0,
  "lat": 47.1551146,
  "lon": 8.4400506,
  "name": "Restaurant Engel"},
 {"elevation": 405.0, "lat": 47.3902919, "lon": 8.5172402, "name": "Angkor"},
 {"elevation": 444.0, "lat": 47.049775, "lon": 8.3012857, "name": "Pikante"},
 {"elevation": 406.0, "lat": 47.4545376, "lon": 8.3375444, "name": "Tägerhard"},
 {"elevation": 408.0, "lat": 47.374778, "lon": 8.543543, "name": "toscano"},
 {"elevation": 408.0,
  "lat": 47.3745675,
  "lon": 8.543731,
  "name": "friskfisk.ch"},
 {"elevation": 421.0,
  "lat": 47.3749804,
  "lon": 8.5445108,
  "name": "Walliser Keller"},
 {"elevation": 421.0,
  "lat": 47.3745297,
  "lon": 8.5447817,
  "name": "Dumpling Delights"},
 {"elevation": 421.0,
  "lat": 47.3747617,
  "lon": 8.5447832,
  "name": "Raclette Stube"},
 {"elevation": 412.0, "lat": 47.3773121, "lon": 8.5277904, "name": "The Bite"},
 {"elevation": 417.0, "lat": 47.3755766, "lon": 8.5271252, "name": "Volkshaus"},
 {"elevation": 417.0,
  "lat": 47.3770748,
  "lon": 8.5274942,
  "name": "Bossa Nova"},
 {"elevation": 417.0,
  "lat": 47.376328,
  "lon": 8.527878,
  "name": "Brasserie Café de Paris"},
 {"elevation": 417.0, "lat": 47.3770439, "lon": 8.5287783, "name": "Ach'i"},
 {"elevation": 417.0,
  "lat": 47.3769262,
  "lon": 8.5284802,
  "name": "Thai-Food-Corner"},
 {"elevation": 413.0, "lat": 47.3779077, "lon": 8.5270821, "name": "Stubä"},
 {"elevation": 417.0,
  "lat": 47.3765636,
  "lon": 8.5290029,
  "name": "Trübli Bar"},
 {"elevation": 417.0, "lat": 47.3747605, "lon": 8.5246725, "name": "Baba Baos"},
 {"elevation": 412.0,
  "lat": 47.3784958,
  "lon": 8.5271796,
  "name": "Schweizerdegen El Papi"},
 {"elevation": 522.0,
  "lat": 47.3385807,
  "lon": 8.7625089,
  "name": "Dino Beizli"},
 {"elevation": 446.0,
  "lat": 47.4981027,
  "lon": 8.7409953,
  "name": "Hermannseck"},
 {"elevation": 479.0, "lat": 47.2391834, "lon": 8.9193976, "name": "Mürtschen"},
 {"elevation": 438.0, "lat": 47.1983902, "lon": 8.4854183, "name": "Szenario"},
 {"elevation": 431.0, "lat": 47.1973531, "lon": 8.4851684, "name": "Rössli"},
 {"elevation": 548.0, "lat": 47.3275002, "lon": 8.8023867, "name": "Konter"},
 {"elevation": 421.0,
  "lat": 47.5108415,
  "lon": 8.6951973,
  "name": "Eulach-Treff"},
 {"elevation": 418.0, "lat": 47.3735871, "lon": 8.5273055, "name": "Grepery"},
 {"elevation": 415.0,
  "lat": 47.1055064,
  "lon": 8.4755586,
  "name": "Restaurant Baumgärtli"},
 {"elevation": 577.0, "lat": 47.3755808, "lon": 8.6079447, "name": "Geeren"},
 {"elevation": 436.0, "lat": 47.3994614, "lon": 8.6214165, "name": "Bahnhöfli"},
 {"elevation": 434.0,
  "lat": 47.4001734,
  "lon": 8.6056204,
  "name": "Lunch & More"},
 {"elevation": 447.0,
  "lat": 47.0095503,
  "lon": 8.3188697,
  "name": "Winkelbadi"},
 {"elevation": 804.0, "lat": 47.1780723, "lon": 8.5911643, "name": "Ochsen"},
 {"elevation": 804.0, "lat": 47.1782702, "lon": 8.5898137, "name": "Rössli"},
 {"elevation": 455.0, "lat": 47.5035719, "lon": 8.7521674, "name": "Tom Yam"},
 {"elevation": 643.0,
  "lat": 47.3672891,
  "lon": 8.8764025,
  "name": "Gasthaus zur Tanne"},
 {"elevation": 643.0,
  "lat": 47.3669492,
  "lon": 8.8770282,
  "name": "Gasthof/Hotel Adler"},
 {"elevation": 439.0, "lat": 47.4148932, "lon": 8.5394998, "name": "Namaste"},
 {"elevation": 448.0,
  "lat": 47.0655878,
  "lon": 8.4077436,
  "name": "Restaurant Swiss-Chalet"},
 {"elevation": 420.0, "lat": 47.6529283, "lon": 8.8441846, "name": "Löwen"},
 {"elevation": 582.0, "lat": 47.4610593, "lon": 8.6599507, "name": "Sternen"},
 {"elevation": 410.0, "lat": 47.3884508, "lon": 8.5257299, "name": "Don Paco"},
 {"elevation": 643.0,
  "lat": 47.4154942,
  "lon": 8.346088,
  "name": "Restaurant Heitersberg"},
 {"elevation": 454.0,
  "lat": 47.5103938,
  "lon": 8.365919,
  "name": "Pizzeria i de Mühli"},
 {"elevation": 460.0, "lat": 47.2840838, "lon": 8.2253164, "name": "Seerose"},
 {"elevation": 457.0, "lat": 47.2440425, "lon": 8.2240978, "name": "Kreuz"},
 {"elevation": 600.0, "lat": 47.7449553, "lon": 8.521522, "name": "Babental"},
 {"elevation": 566.0, "lat": 47.1145325, "lon": 8.0938822, "name": "Hirschen"},
 {"elevation": 565.0, "lat": 47.114372, "lon": 8.0930239, "name": "Kreuz"},
 {"elevation": 500.0,
  "lat": 47.1726576,
  "lon": 8.1080841,
  "name": "Zum Wilden Mann"},
 {"elevation": 410.0,
  "lat": 47.676506,
  "lon": 8.8324606,
  "name": "Restaurant Bacchus"},
 {"elevation": 433.0, "lat": 47.3958792, "lon": 8.6043207, "name": "Sonnental"},
 {"elevation": 437.0, "lat": 47.3983155, "lon": 8.6187267, "name": "Punto 9"},
 {"elevation": 435.0,
  "lat": 47.3925569,
  "lon": 8.5308196,
  "name": "Ototo - Sushi Dining"},
 {"elevation": 437.0,
  "lat": 47.3985536,
  "lon": 8.6179016,
  "name": "Bistro Hà Nôi"},
 {"elevation": 441.0,
  "lat": 47.414823,
  "lon": 8.5457621,
  "name": "Golden India"},
 {"elevation": 422.0, "lat": 47.478409, "lon": 8.488112, "name": "Fulmine"},
 {"elevation": 431.0,
  "lat": 47.741595,
  "lon": 8.737037,
  "name": "Landgasthof Wider"},
 {"elevation": 446.0, "lat": 47.498523, "lon": 8.7261594, "name": "Ocean Five"},
 {"elevation": 446.0,
  "lat": 47.4988298,
  "lon": 8.7261226,
  "name": "Zum Goldenen Horn"},
 {"elevation": 421.0, "lat": 47.3799291, "lon": 8.5432583, "name": "Zentral"},
 {"elevation": 421.0,
  "lat": 47.3797694,
  "lon": 8.5433497,
  "name": "Casa Ferlin"},
 {"elevation": 478.0, "lat": 47.4901635, "lon": 8.7256654, "name": "Breite"},
 {"elevation": 1141.0,
  "lat": 47.1541575,
  "lon": 8.8630238,
  "name": "Skihaus Ruchweid"},
 {"elevation": 450.0,
  "lat": 47.4983744,
  "lon": 8.7282627,
  "name": "Silberkeller"},
 {"elevation": 537.0, "lat": 47.5440308, "lon": 8.0661477, "name": "Rütihof"},
 {"elevation": 409.0, "lat": 47.3874963, "lon": 8.5272804, "name": "Limmathof"},
 {"elevation": 409.0, "lat": 47.3871627, "lon": 8.528489, "name": "Alpenrose"},
 {"elevation": 409.0, "lat": 47.3863054, "lon": 8.5289489, "name": "a fatt"},
 {"elevation": 409.0, "lat": 47.3832551, "lon": 8.5332337, "name": "Tadka"},
 {"elevation": 409.0, "lat": 47.3821574, "lon": 8.5357577, "name": "Püente"},
 {"elevation": 413.0,
  "lat": 47.3842264,
  "lon": 8.5319218,
  "name": "Millennium"},
 {"elevation": 418.0, "lat": 47.3748621, "lon": 8.1432419, "name": "Lindenhof"},
 {"elevation": 500.0, "lat": 47.7322844, "lon": 8.4910851, "name": "Hohbrugg"},
 {"elevation": 407.0, "lat": 47.4632512, "lon": 8.3320809, "name": "Sonne"},
 {"elevation": 499.0,
  "lat": 47.2515845,
  "lon": 8.7656468,
  "name": "Gasthof Krone"},
 {"elevation": 411.0,
  "lat": 47.3787172,
  "lon": 8.5233543,
  "name": "marktküche"},
 {"elevation": 689.0,
  "lat": 47.0185678,
  "lon": 8.2831667,
  "name": "Himmelrich"},
 {"elevation": 416.0, "lat": 47.3714586, "lon": 8.5378013, "name": "Carlton"},
 {"elevation": 675.0,
  "lat": 47.2573319,
  "lon": 8.9173206,
  "name": "Gasthof Hiltisberg"},
 {"elevation": 450.0,
  "lat": 47.4991204,
  "lon": 8.7274751,
  "name": "Bistro La Couronne"},
 {"elevation": 409.0,
  "lat": 47.2037301,
  "lon": 8.7654165,
  "name": "Restaurant Ried"},
 {"elevation": 640.0, "lat": 47.3670632, "lon": 8.8808495, "name": "Schöntal"},
 {"elevation": 648.0,
  "lat": 47.3690141,
  "lon": 8.8231543,
  "name": "Gasthaus Sonne"},
 {"elevation": 446.0, "lat": 47.4981734, "lon": 8.731688, "name": "De Tapas"},
 {"elevation": 446.0,
  "lat": 47.4981861,
  "lon": 8.731585,
  "name": "La Panetteria"},
 {"elevation": 551.0,
  "lat": 47.3625862,
  "lon": 8.3670127,
  "name": "Stars and Stripes"},
 {"elevation": 448.0, "lat": 47.0522184, "lon": 8.3056315, "name": "Storchen"},
 {"elevation": 443.0,
  "lat": 47.4136892,
  "lon": 8.5410753,
  "name": "Coop Restaurant"},
 {"elevation": 415.0,
  "lat": 47.1658695,
  "lon": 8.5143375,
  "name": "Golden Dragon"},
 {"elevation": 517.0,
  "lat": 47.2630625,
  "lon": 8.7757466,
  "name": "Gartenbeizli Hasel"},
 {"elevation": 423.0, "lat": 47.2307489, "lon": 8.9630417, "name": "Sonne"},
 {"elevation": 413.0, "lat": 47.1931137, "lon": 8.8513527, "name": "OX"},
 {"elevation": 413.0,
  "lat": 47.1934191,
  "lon": 8.8514237,
  "name": "Osteria Vista"},
 {"elevation": 411.0,
  "lat": 47.4664494,
  "lon": 8.3352301,
  "name": "La Vecchia Posta"},
 {"elevation": 408.0,
  "lat": 47.2093645,
  "lon": 8.7956786,
  "name": "Gasthof Seefeld"},
 {"elevation": 430.0,
  "lat": 47.1522548,
  "lon": 9.0189624,
  "name": "Pizzeria Vesuvio"},
 {"elevation": 423.0, "lat": 47.1625994, "lon": 8.9972621, "name": "Freihof"},
 {"elevation": 545.0,
  "lat": 47.3069922,
  "lon": 8.8179127,
  "name": "Coop Restaurant"},
 {"elevation": 418.0,
  "lat": 47.6443711,
  "lon": 8.2793676,
  "name": "Schützenstube"},
 {"elevation": 893.0, "lat": 47.1268251, "lon": 8.7478134, "name": "Faros"},
 {"elevation": 885.0,
  "lat": 47.1289808,
  "lon": 8.7417862,
  "name": "Rosengarten"},
 {"elevation": 880.0,
  "lat": 47.1310181,
  "lon": 8.7437813,
  "name": "Pizzeria La Strada"},
 {"elevation": 880.0,
  "lat": 47.1312185,
  "lon": 8.7438907,
  "name": "Gasthof Heidenbühl"},
 {"elevation": 886.0, "lat": 47.1272563, "lon": 8.7460031, "name": "Sihlsee"},
 {"elevation": 408.0,
  "lat": 47.5539264,
  "lon": 8.8944577,
  "name": "Thaigers Tschokdee"},
 {"elevation": 407.0, "lat": 47.6978358, "lon": 8.6337653, "name": "Bambus"},
 {"elevation": 413.0, "lat": 47.3791312, "lon": 8.5250934, "name": "Gamper"},
 {"elevation": 411.0, "lat": 47.3790069, "lon": 8.5249463, "name": "Za'atar"},
 {"elevation": 424.0,
  "lat": 47.4556423,
  "lon": 8.3892314,
  "name": "Bahnhöfli Ahan Thai"},
 {"elevation": 643.0, "lat": 47.3681086, "lon": 8.8761497, "name": "Weinrebe"},
 {"elevation": 649.0,
  "lat": 47.3655792,
  "lon": 8.8862457,
  "name": "Wirtschaft zur Schwendi"},
 {"elevation": 610.0, "lat": 47.3857843, "lon": 8.860127, "name": "Löwen"},
 {"elevation": 416.0,
  "lat": 47.3750304,
  "lon": 8.524534,
  "name": "Peking Garden"},
 {"elevation": 414.0, "lat": 47.3758647, "lon": 8.5251128, "name": "Celia"},
 {"elevation": 632.0,
  "lat": 47.2394357,
  "lon": 8.2026657,
  "name": "Wirtshus Trolerhof"},
 {"elevation": 415.0, "lat": 47.3767368, "lon": 8.5207415, "name": "Pergola"},
 {"elevation": 408.0, "lat": 47.3771472, "lon": 8.5202111, "name": "Brera"},
 {"elevation": 442.0, "lat": 47.4313056, "lon": 8.4716439, "name": "Hot Wok"},
 {"elevation": 425.0,
  "lat": 47.1671744,
  "lon": 8.5159589,
  "name": "Café am Hirschenplatz"},
 {"elevation": 441.0, "lat": 47.4164324, "lon": 8.5458225, "name": "Libanès"},
 {"elevation": 904.0,
  "lat": 47.125445,
  "lon": 8.7501154,
  "name": "Klostergarten"},
 {"elevation": 883.0,
  "lat": 47.1273112,
  "lon": 8.7443954,
  "name": "Schifflände"},
 {"elevation": 898.0,
  "lat": 47.1279882,
  "lon": 8.7495568,
  "name": "Sushi Chen"},
 {"elevation": 883.0, "lat": 47.1276115, "lon": 8.7439035, "name": "Walhalla"},
 {"elevation": 531.0, "lat": 47.4886654, "lon": 8.9031059, "name": "Linde"},
 {"elevation": 689.0,
  "lat": 47.0196442,
  "lon": 8.2776409,
  "name": "Artstätte Bürestubli"},
 {"elevation": 883.0,
  "lat": 47.1275073,
  "lon": 8.7450469,
  "name": "Einsiedler Stübli"},
 {"elevation": 898.0,
  "lat": 47.1279869,
  "lon": 8.749749,
  "name": "Veechia Napoli"},
 {"elevation": 415.0, "lat": 47.3812974, "lon": 8.4225145, "name": "Sonne"},
 {"elevation": 490.0, "lat": 47.1670148, "lon": 8.2901366, "name": "Braui"},
 {"elevation": 454.0,
  "lat": 47.6290277,
  "lon": 8.7274269,
  "name": "Restaurant Rössli"},
 {"elevation": 453.0,
  "lat": 47.6997923,
  "lon": 8.6265911,
  "name": "Schützenhaus"},
 {"elevation": 457.0,
  "lat": 47.4048648,
  "lon": 8.5379355,
  "name": "Kiosk / Restaurant"},
 {"elevation": 508.0, "lat": 47.5853131, "lon": 8.2753307, "name": "N/A"},
 {"elevation": 898.0,
  "lat": 47.1271322,
  "lon": 8.7495261,
  "name": "Fischerstube"},
 {"elevation": 883.0, "lat": 47.1279456, "lon": 8.7448797, "name": "Isebähnli"},
 {"elevation": 881.0,
  "lat": 47.1292162,
  "lon": 8.7459462,
  "name": "Mythenblick"},
 {"elevation": 886.0,
  "lat": 47.1288285,
  "lon": 8.7476488,
  "name": "Restaurant Du Nord"},
 {"elevation": 883.0,
  "lat": 47.1280354,
  "lon": 8.7449235,
  "name": "Restaurant Pöstli"},
 {"elevation": 900.0,
  "lat": 47.1347966,
  "lon": 8.7528766,
  "name": "Restaurant Grütli"},
 {"elevation": 412.0, "lat": 47.3794266, "lon": 8.5237792, "name": "Werkhof"},
 {"elevation": 417.0,
  "lat": 47.3745663,
  "lon": 8.5245378,
  "name": "Burgermeister"},
 {"elevation": 414.0, "lat": 47.3752425, "lon": 8.5250339, "name": "SO Pizza"},
 {"elevation": 417.0,
  "lat": 47.3742019,
  "lon": 8.5234872,
  "name": "Queen Idia African Restaurant"},
 {"elevation": 415.0,
  "lat": 47.3737011,
  "lon": 8.5218254,
  "name": "di Lenardo"},
 {"elevation": 936.0,
  "lat": 47.1434321,
  "lon": 8.5370098,
  "name": "Restaurant Vordergeissboden"},
 {"elevation": 541.0, "lat": 47.4786968, "lon": 8.9031781, "name": "Schmitte"},
 {"elevation": 417.0,
  "lat": 47.2484185,
  "lon": 8.7080681,
  "name": "Obstgarten"},
 {"elevation": 455.0,
  "lat": 47.513644,
  "lon": 8.7644672,
  "name": "Restaurant Technorama (ZFV)"},
 {"elevation": 607.0,
  "lat": 47.3088985,
  "lon": 8.1737859,
  "name": "Gasthof Linde"},
 {"elevation": 523.0, "lat": 47.2888266, "lon": 8.1993253, "name": "Seebrise"},
 {"elevation": 510.0, "lat": 47.2671419, "lon": 8.2045744, "name": "Rütli"},
 {"elevation": 475.0, "lat": 47.3235854, "lon": 7.991457, "name": "Löwen"},
 {"elevation": 472.0, "lat": 47.323047, "lon": 8.2067925, "name": "Testarossa"},
 {"elevation": 654.0,
  "lat": 47.3653807,
  "lon": 8.8993611,
  "name": "Landbeiz zur Heimat"},
 {"elevation": 445.0,
  "lat": 47.3455808,
  "lon": 8.1597128,
  "name": "Gasthof Sternen"},
 {"elevation": 442.0, "lat": 47.3464911, "lon": 8.160422, "name": "Unterdorf"},
 {"elevation": 445.0, "lat": 47.3528659, "lon": 8.1604475, "name": "Frohsinn"},
 {"elevation": 418.0, "lat": 47.3734849, "lon": 8.5287165, "name": "Molino"},
 {"elevation": 448.0, "lat": 47.328213, "lon": 8.1205135, "name": "Lindenhof"},
 {"elevation": 456.0, "lat": 47.3279667, "lon": 8.121134, "name": "Frohsinn"},
 {"elevation": 443.0,
  "lat": 47.3299526,
  "lon": 8.114206,
  "name": "Trattoria Tapeo"},
 {"elevation": 410.0, "lat": 47.3855895, "lon": 8.180665, "name": "Ochsen"},
 {"elevation": 1207.0,
  "lat": 47.0182993,
  "lon": 8.5512653,
  "name": "Zum Gätterlipass"},
 {"elevation": 412.0,
  "lat": 47.5520763,
  "lon": 8.8852999,
  "name": "Pizza del Centro"},
 {"elevation": 438.0,
  "lat": 47.0529405,
  "lon": 8.335398,
  "name": "Brasserie Verkehrshaus"},
 {"elevation": 436.0, "lat": 47.0528413, "lon": 8.3357574, "name": "Mercato"},
 {"elevation": 418.0, "lat": 47.3737975, "lon": 8.5274539, "name": "Ichizen"},
 {"elevation": 430.0,
  "lat": 47.3716921,
  "lon": 8.5446644,
  "name": "Hôtel Bourbon"},
 {"elevation": 425.0,
  "lat": 47.3705962,
  "lon": 8.5438655,
  "name": "Le Dézaley Restaurant Vaudois"},
 {"elevation": 412.0,
  "lat": 47.3710755,
  "lon": 8.5433622,
  "name": "Style Thai"},
 {"elevation": 511.0,
  "lat": 47.4080005,
  "lon": 8.7246055,
  "name": "Steak House"},
 {"elevation": 423.0, "lat": 47.3717505, "lon": 8.5159377, "name": "La Côte"},
 {"elevation": 429.0,
  "lat": 47.3700945,
  "lon": 8.5491025,
  "name": "Santa Lucia"},
 {"elevation": 418.0, "lat": 47.3746589, "lon": 8.5290969, "name": "Don Leone"},
 {"elevation": 411.0, "lat": 47.3757244, "lon": 8.5292515, "name": "Convivio"},
 {"elevation": 417.0,
  "lat": 47.375334,
  "lon": 8.5286575,
  "name": "Accademia del Gusto"},
 {"elevation": 418.0, "lat": 47.3748928, "lon": 8.5287964, "name": "Ikoo"},
 {"elevation": 417.0, "lat": 47.3751694, "lon": 8.528416, "name": "D'Aurora"},
 {"elevation": 417.0,
  "lat": 47.3754803,
  "lon": 8.5284806,
  "name": "Osteria Santo Bevitore"},
 {"elevation": 418.0, "lat": 47.3742016, "lon": 8.5307896, "name": "Meat Me"},
 {"elevation": 418.0,
  "lat": 47.3743454,
  "lon": 8.5295536,
  "name": "Sweet Basil"},
 {"elevation": 418.0, "lat": 47.3743453, "lon": 8.5306087, "name": "Real"},
 {"elevation": 418.0, "lat": 47.3746892, "lon": 8.5294759, "name": "Akaraka"},
 {"elevation": 418.0, "lat": 47.3746427, "lon": 8.5302421, "name": "Bunzai"},
 {"elevation": 511.0, "lat": 47.4455506, "lon": 8.7956473, "name": "Isebähnli"},
 {"elevation": 886.0, "lat": 47.1275806, "lon": 8.7468669, "name": "Hofstatt"},
 {"elevation": 417.0, "lat": 47.3682658, "lon": 8.5459508, "name": "Tschingg"},
 {"elevation": 442.0, "lat": 47.4458467, "lon": 8.2957875, "name": "Esp"},
 {"elevation": 963.0,
  "lat": 47.0909805,
  "lon": 8.6730436,
  "name": "Beaver Creek"},
 {"elevation": 413.0, "lat": 47.3567721, "lon": 8.0461483, "name": "Mühle"},
 {"elevation": 413.0,
  "lat": 47.3717267,
  "lon": 8.5214185,
  "name": "Lou's Restaurant & Bar"},
 {"elevation": 921.0, "lat": 47.1318262, "lon": 8.7593731, "name": "Lincoln"},
 {"elevation": 555.0,
  "lat": 47.4357384,
  "lon": 8.8472026,
  "name": "Landenberg"},
 {"elevation": 570.0, "lat": 47.4353713, "lon": 8.8480003, "name": "Linde"},
 {"elevation": 446.0,
  "lat": 47.4067404,
  "lon": 8.5507215,
  "name": "Schnitzelhuus Oerlikon"},
 {"elevation": 408.0,
  "lat": 47.6937845,
  "lon": 8.6321829,
  "name": "Wirtschaft zur Beckenburg"},
 {"elevation": 570.0,
  "lat": 47.2269658,
  "lon": 8.5272111,
  "name": "Gasthaus Adler"},
 {"elevation": 1755.0,
  "lat": 47.0558411,
  "lon": 8.4840774,
  "name": "Rigi Kulm"},
 {"elevation": 1697.0,
  "lat": 47.0552452,
  "lon": 8.4812406,
  "name": "Kessiboden"},
 {"elevation": 691.0,
  "lat": 47.6987649,
  "lon": 8.2517838,
  "name": "Alter Schwede"},
 {"elevation": 454.0, "lat": 47.465024, "lon": 8.286452, "name": "Moccalino"},
 {"elevation": 421.0,
  "lat": 47.181995,
  "lon": 8.4609725,
  "name": "Pizzeria Carrera"},
 {"elevation": 446.0,
  "lat": 47.4073905,
  "lon": 8.5498029,
  "name": "Restaurant Dorflinde"},
 {"elevation": 629.0, "lat": 47.2567446, "lon": 8.1485887, "name": "Geisshof"},
 {"elevation": 524.0, "lat": 47.254941, "lon": 8.1824912, "name": "Treff"},
 {"elevation": 523.0, "lat": 47.2562742, "lon": 8.1805298, "name": "Züribeck"},
 {"elevation": 527.0, "lat": 47.2533213, "lon": 8.1828496, "name": "Central"},
 {"elevation": 437.0, "lat": 47.4526469, "lon": 8.5298506, "name": "Romantica"},
 {"elevation": 872.0, "lat": 47.2734333, "lon": 8.9519848, "name": "Bannholz"},
 {"elevation": 425.0,
  "lat": 47.3688689,
  "lon": 8.5454267,
  "name": "Omis Knödel"},
 {"elevation": 422.0, "lat": 47.5248031, "lon": 8.6230467, "name": "Traube"},
 {"elevation": 730.0,
  "lat": 47.1035749,
  "lon": 8.6403463,
  "name": "Hotel Restaurant Morgarten"},
 {"elevation": 418.0,
  "lat": 47.1781948,
  "lon": 8.4592841,
  "name": "Minigolf Cham Villette"},
 {"elevation": 716.0,
  "lat": 47.1479761,
  "lon": 8.5657657,
  "name": "Restaurant Rössli"},
 {"elevation": 428.0, "lat": 47.1808845, "lon": 8.8753353, "name": "Sternen"},
 {"elevation": 438.0, "lat": 47.5042768, "lon": 8.7255421, "name": "Banane"},
 {"elevation": 742.0, "lat": 47.2589237, "lon": 8.9890006, "name": "Kapelle"},
 {"elevation": 834.0, "lat": 47.2703913, "lon": 9.0101602, "name": "Kreuz"},
 {"elevation": 559.0,
  "lat": 47.4968461,
  "lon": 8.1541505,
  "name": "Güggeli-Sternen"},
 {"elevation": 424.0,
  "lat": 47.5522768,
  "lon": 8.7996555,
  "name": "Alte Mühle"},
 {"elevation": 890.0,
  "lat": 46.9899647,
  "lon": 8.3942745,
  "name": "Uf der Egg"},
 {"elevation": 411.0,
  "lat": 47.3855243,
  "lon": 8.5312041,
  "name": "Migros Restaurant"},
 {"elevation": 414.0, "lat": 47.3762153, "lon": 8.5400686, "name": "Palette"},
 {"elevation": 415.0, "lat": 47.372174, "lon": 8.5340237, "name": "Long Huang"},
 {"elevation": 438.0,
  "lat": 47.3084614,
  "lon": 8.3224707,
  "name": "Restaurant Hirschen"},
 {"elevation": 473.0, "lat": 47.4034424, "lon": 8.5471665, "name": "Smeiley's"},
 {"elevation": 435.0, "lat": 47.328317, "lon": 8.0561467, "name": "Menzu"},
 {"elevation": 439.0,
  "lat": 47.0518897,
  "lon": 8.3057843,
  "name": "Brasserie Bodu"},
 {"elevation": 545.0,
  "lat": 47.4616495,
  "lon": 8.9966381,
  "name": "Gasthaus Engel"},
 {"elevation": 414.0, "lat": 47.3764802, "lon": 8.5252621, "name": "Pho 50"},
 {"elevation": 589.0,
  "lat": 47.1969782,
  "lon": 8.6910564,
  "name": "Sternensee"},
 {"elevation": 449.0,
  "lat": 47.4090175,
  "lon": 8.5457746,
  "name": "House of Mezze"},
 {"elevation": 904.0,
  "lat": 47.1252739,
  "lon": 8.7501725,
  "name": "Meinradsberg"},
 {"elevation": 411.0, "lat": 47.1921489, "lon": 8.8529411, "name": "Oh! Sushi"},
 {"elevation": 417.0, "lat": 47.1914447, "lon": 8.8525315, "name": "Pöstli"},
 {"elevation": 411.0, "lat": 47.1928049, "lon": 8.8525855, "name": "Zum Bären"},
 {"elevation": 417.0,
  "lat": 47.3760618,
  "lon": 8.5288696,
  "name": "The Sacred"},
 {"elevation": 745.0,
  "lat": 46.9877573,
  "lon": 8.6211259,
  "name": "Golfclub Axenstein"},
 {"elevation": 443.0,
  "lat": 47.4109887,
  "lon": 8.5459625,
  "name": "Burgermeister"},
 {"elevation": 425.0,
  "lat": 47.1669901,
  "lon": 8.5153406,
  "name": "Olive & Oregano"},
 {"elevation": 444.0,
  "lat": 47.1743849,
  "lon": 8.4267929,
  "name": "Gasthaus Degen"},
 {"elevation": 452.0,
  "lat": 47.1756704,
  "lon": 8.4264584,
  "name": "Da Riccardo"},
 {"elevation": 444.0, "lat": 47.0459672, "lon": 8.3068468, "name": "Helvetia"},
 {"elevation": 444.0,
  "lat": 47.045799,
  "lon": 8.3051527,
  "name": "Weisses Schloss"},
 {"elevation": 441.0,
  "lat": 47.0554497,
  "lon": 8.3110666,
  "name": "California"},
 {"elevation": 504.0,
  "lat": 47.2522851,
  "lon": 8.767681,
  "name": "Chez Gaspi 23"},
 {"elevation": 527.0, "lat": 47.1338775, "lon": 8.1377332, "name": "Mühle"},
 {"elevation": 581.0, "lat": 47.2848415, "lon": 8.5278855, "name": "Löwen"},
 {"elevation": 520.0, "lat": 47.1357971, "lon": 8.1355021, "name": "Bahnhöfli"},
 {"elevation": 926.0, "lat": 47.0589829, "lon": 8.8020143, "name": "Schäfli"},
 {"elevation": 414.0,
  "lat": 47.0967803,
  "lon": 8.4637208,
  "name": "Seerestaurant zum Schlüssel"},
 {"elevation": 411.0, "lat": 47.3779493, "lon": 8.5298119, "name": "Neela"},
 {"elevation": 460.0,
  "lat": 47.27712,
  "lon": 8.5750937,
  "name": "Il Mio Quattro"},
 {"elevation": 442.0, "lat": 47.0182283, "lon": 8.3113153, "name": "Rössli"},
 {"elevation": 468.0,
  "lat": 47.0146222,
  "lon": 8.3109156,
  "name": "La Fontana"},
 {"elevation": 445.0, "lat": 47.0206438, "lon": 8.3106823, "name": "La Grotta"},
 {"elevation": 442.0, "lat": 47.0187729, "lon": 8.3092846, "name": "Enzian"},